RecordedAtTime,DirectionRef,PublishedLineName,OriginName,OriginLat,OriginLong,DestinationName,DestinationLat,DestinationLong,VehicleRef,VehicleLocation.Latitude,VehicleLocation.Longitude,NextStopPointName,ArrivalProximityText,DistanceFromStop,ExpectedArrivalTime,ScheduledArrivalTime
2017-12-01 00:05:49,0,B67,MC DONALD AV/CORTELYOU RD,40.63816,-73.978939,DNTWN BKLYN SANDS ST via FLATBUSH AV,40.700253,-73.98703,NYCT_406,40.671578,-73.977672,7 AV/GARFIELD PL,approaching,130,2017-12-01 00:06:21,24:01:30
2017-12-01 00:06:19,1,Bx7,RIVERDALE AV/W 263 ST,40.912363,-73.902699,WASHINGTON HEIGHTS 166 ST via BROADWAY,40.839813,-73.939745,NYCT_4223,40.866243,-73.925258,BROADWAY/ACADEMY ST,at stop,14,2017-12-01 00:06:21,23:34:35
2017-12-01 00:05:25,0,S51,LINCOLN AV/RICHMOND RD,40.581245,-74.11199,ST GEORGE FERRY via BAY ST,40.643585,-74.07261,NYCT_7080,40.581364,-74.112033,MIDLAND AV/RICHMOND RD,< 1 stop away,209,2017-12-01 00:06:22,24:15:35
2017-12-01 00:05:56,0,M8,WEST ST/CHRISTOPHER ST,40.732847,-74.010081,AVENUE "D" CROSSTOWN,40.724689,-73.974548,NYCT_3809,40.734194,-73.999677,GREENWICH AV/CHRISTOPHER ST,at stop,5,2017-12-01 00:06:22,24:05:24
2017-12-01 00:06:02,0,M101,ASTOR PL/3 AV,40.729567,-73.990052,FT GEORGE 193 ST via 3 AV,40.855666,-73.925259,NYCT_5902,40.773784,-73.957659,3 AV/E 79 ST,approaching,108,2017-12-01 00:06:24,24:03:01
2017-12-01 00:06:15,0,M5,6 AV/W 31 ST,40.748042,-73.988957,WASHINGTON HEIGHTS  GW BRIDGE,40.848264,-73.937455,NYCT_6365,40.76087,-73.979718,AV OF THE AMERICAS/W 54 ST,< 1 stop away,227,2017-12-01 00:07:54,23:51:51
2017-12-01 00:06:07,0,B41,E 70 ST/VETERANS AV,40.619935,-73.908708,EMPIRE BL,40.663012,-73.962211,NYCT_5045,40.619318,-73.920946,AV N/E 55 ST,approaching,129,2017-12-01 00:06:31,24:05:50
2017-12-01 00:05:50,1,S53,4 AV/86 ST,40.622312,-74.028688,PT RICHMOND,40.640296,-74.13133,NYCT_8249,40.608292,-74.088821,NARROWS RD N/RHINE AV,approaching,151,2017-12-01 00:06:39,24:00:01
2017-12-01 00:06:15,0,M101,ASTOR PL/3 AV,40.729567,-73.990052,96 ST,40.785724,-73.948791,NYCT_5268,40.730379,-73.989303,3 AV/E 9 ST,at stop,4,NA,24:05:29
2017-12-01 00:05:58,1,B6,LIVONIA AV/ASHFORD ST,40.666382,-73.883617,BENSONHURST HARWAY AV,40.592947,-73.993383,NYCT_5090,40.653041,-73.889844,COZINE AV/ALABAMA AV,at stop,28,2017-12-01 00:06:22,24:03:14
2017-12-01 00:05:51,1,Q2,HEMPSTEAD AV/225 ST,40.71162,-73.729229,JAMAICA 165 ST TERM,40.707614,-73.795538,NYCT_8500,40.708276,-73.795573,165 ST / 165 ST TERM,approaching,82,2017-12-01 00:06:22,24:04:00
2017-12-01 00:06:20,0,B6,HARWAY AV/BAY 37 ST,40.59351,-73.993996,EAST NY NEW LOTS STA,40.66642,-73.883387,NYCT_7179,40.664052,-73.881784,LIVONIA AV/ASHFORD ST,< 1 stop away,416,2017-12-01 00:07:41,24:05:00
2017-12-01 00:06:11,0,M101,ASTOR PL/3 AV,40.729567,-73.990052,FT GEORGE 193 ST via 3 AV,40.855666,-73.925259,NYCT_6077,40.818718,-73.952366,AMSTERDAM AV/W 135 ST,approaching,80,2017-12-01 00:06:38,23:47:52
2017-12-01 00:06:04,0,Bx1,LINCOLN AV/E 137 ST,40.809617,-73.928272,RIVERDALE 231 ST via CONCOURSE,40.881062,-73.908689,NYCT_5800,40.868161,-73.892561,GRAND CONCOURSE/E 198 ST,< 1 stop away,297,2017-12-01 00:07:13,24:06:25
2017-12-01 00:05:49,0,Bx16,E 206 ST/ROCHAMBEAU AV,40.874932,-73.880795,PELHAM ROPES AV via MUNDY LA,40.889844,-73.819521,NYCT_4076,40.88728,-73.824627,MC OWEN AV/BOSTON RD,< 1 stop away,480,2017-12-01 00:06:40,24:05:32
2017-12-01 00:05:57,1,Bx41,WHITE PLAINS RD/E GUN HILL RD,40.877853,-73.866668,THE HUB 150 ST via WEBSTER,40.816888,-73.917485,NYCT_4796,40.878642,-73.871581,WEBSTER AV/E GUN HILL RD,approaching,53,2017-12-01 00:06:22,24:02:23
2017-12-01 00:06:13,1,Bx12,BAY PLAZA BL/APPLEBEE'S,40.866285,-73.826858,INWOOD BWY-207 ST- PEL PKY via FRDHAM RD,40.867787,-73.920551,NYCT_4755,40.852011,-73.827179,AMENDOLA PL/WILKINSON AV,at stop,26,2017-12-01 00:06:22,24:03:00
2017-12-01 00:05:55,1,B35,HEGEMAN AV/CHESTER AV,40.656215,-73.908149,SUNSET PARK 1 AV via CHURCH,40.656499,-74.012109,NYCT_662,40.655177,-74.010334,39 ST/2 AV,approaching,57,2017-12-01 00:06:22,24:01:19
2017-12-01 00:06:03,1,B44,WASHINGTON PLZ/WASHINGTON PLZ,40.709285,-73.959526,EMMONS AV,40.584028,-73.938408,NYCT_5177,40.675641,-73.949958,NOSTRAND AV/PROSPECT PL,approaching,136,2017-12-01 00:06:55,24:01:38
2017-12-01 00:06:13,0,B12,PARKSIDE AV/OCEAN AV,40.654887,-73.961725,EAST NY ALABAMA AV,40.676817,-73.899659,NYCT_6795,40.676862,-73.899714,FULTON ST/ALABAMA AV,at stop,3,2017-12-01 00:06:22,24:09:00
2017-12-01 00:06:13,0,Bx4,BERGEN AV/WESTCHESTER AV,40.8163,-73.915704,WESTCHTR SQ via WESTCHTR AV,40.840268,-73.843224,NYCT_4771,40.83154,-73.867539,WESTCHESTER AV/THIERIOT AV,< 1 stop away,244,2017-12-01 00:06:53,24:04:09
2017-12-01 00:05:58,0,M Shuttle Bus,BROADWAY/MYRTLE AV,40.69726,-73.935893,MYRTLE- WYCKOFF AVS,40.699793,-73.910688,NYCT_6115,40.698832,-73.918106,MYRTLE AV/BLEECKER ST,at stop,30,2017-12-01 00:06:22,00:08:36
2017-12-01 00:06:13,0,Bx2,LINCOLN AV/E 137 ST,40.809617,-73.928272,KNGSBRDG HTS FT INDEP ST via CONCOURSE,40.878747,-73.898032,NYCT_1207,40.849018,-73.906135,GRAND CONCOURSE/E TREMONT AV,at stop,10,2017-12-01 00:06:22,24:06:00
2017-12-01 00:06:10,1,M57,E 60 ST/YORK AV,40.75931,-73.959464,WEST SIDE BWAY - 72 ST XTOWN,40.778765,-73.982253,NYCT_3911,40.777069,-73.986473,WEST END AV/W 69 ST,approaching,87,2017-12-01 00:06:23,23:53:32
2017-12-01 00:06:07,1,M102,W 146 ST/MALCOLM X BL,40.821152,-73.935977,EAST VIL 6 ST via LEX AV,40.729113,-73.990259,NYCT_5642,40.780666,-73.954729,LEXINGTON AV/E 86 ST,< 1 stop away,175,2017-12-01 00:06:30,24:03:05
2017-12-01 00:05:53,1,Bx2,SEDGWICK AV/FT INDEPENDENCE ST,40.878632,-73.89775,MOTT HAVEN 136 ST via CONCOURSE,40.809653,-73.928362,NYCT_5570,40.834763,-73.917704,GRAND CONCOURSE/E 167 ST,approaching,78,2017-12-01 00:06:22,24:05:59
2017-12-01 00:05:58,0,B6,HARWAY AV/BAY 37 ST,40.59351,-73.993996,EAST NY NEW LOTS STA,40.66642,-73.883387,NYCT_7148,40.64223,-73.902882,FLATLANDS AV/E 94 ST,at stop,12,2017-12-01 00:06:22,24:02:48
2017-12-01 00:06:06,1,S53,4 AV/86 ST,40.622312,-74.028688,PT RICHMOND,40.640296,-74.13133,NYCT_8236,40.60686,-74.04399,LILY POND AV/MAJOR AV,1.7 miles away,2709,2017-12-01 00:10:01,24:16:30
2017-12-01 00:06:04,0,S74,BRICKTOWN SHOPPING/CENTER,40.530102,-74.226292,ST GEORGE FERRY,40.643585,-74.07261,NYCT_8151,40.575212,-74.122226,RICHMOND RD/ROSE AV,approaching,101,2017-12-01 00:06:22,24:06:34
2017-12-01 00:06:04,1,B63,BROOKLYN BRIDGE PARK RD/JORALEMON ST,40.692232,-74.000448,BAY RIDGE SHORE RD via 5 AV,40.612311,-74.035981,NYCT_343,40.686862,-73.984658,ATLANTIC AV/BOND ST,at stop,11,2017-12-01 00:06:22,24:01:38
2017-12-01 00:06:15,0,S78,BRICKTOWN SHOPPING/CENTER,40.530102,-74.226292,ST GEORGE FERRY via HYLAN,40.643585,-74.07261,NYCT_8139,40.5976,-74.074111,HYLAN BL/LINWOOD AV,at stop,12,2017-12-01 00:06:22,24:04:45
2017-12-01 00:05:54,1,B35,HEGEMAN AV/CHESTER AV,40.656215,-73.908149,SUNSET PARK 1 AV via CHURCH,40.656499,-74.012109,NYCT_427,40.642979,-73.978999,CHURCH AV/MC DONALD AV,approaching,80,2017-12-01 00:06:22,24:06:00
2017-12-01 00:05:51,1,B60,WASHINGTON PLZ/LANE 2,40.709517,-73.959497,CANARSIE WILLIAMS AV,40.650239,-73.891686,NYCT_3999,40.664337,-73.909365,ROCKAWAY AV/DUMONT AV,approaching,58,2017-12-01 00:06:22,23:55:44
2017-12-01 00:06:01,0,M35,LEXINGTON AV/E 125 ST,40.80458,-73.937417,WARDS ISLAND,40.785111,-73.930715,NYCT_1269,40.804532,-73.937305,LEXINGTON AV/E 125 ST,at stop,0,NA,24:15:00
2017-12-01 00:06:04,1,B46,WASHINGTON PLZ/LANE3,40.709392,-73.95952,KINGS PLAZA via UTICA,40.60914,-73.921443,NYCT_5139,40.695575,-73.932746,BROADWAY/WILLOUGHBY AV,at stop,0,NA,23:57:39
2017-12-01 00:06:09,0,M20,STATE ST/WHITEHALL ST,40.70242,-74.013049,LINCOLN CENTER 66 ST via 8 AV,40.771797,-73.982364,NYCT_5219,40.758381,-73.988953,8 AV/W 46 ST,approaching,136,NA,23:44:58
2017-12-01 00:05:53,1,B17,EASTERN PY/UTICA AV,40.668537,-73.931235,CANARSIE SEAVIEW AV,40.638922,-73.881553,NYCT_7094,40.666458,-73.931342,UTICA AV/CARROLL ST,approaching,73,2017-12-01 00:06:22,24:06:27
2017-12-01 00:06:04,0,M50,12 AV/W 42 ST ISLAND,40.762049,-74.000996,E 49 ST & 1 AV,40.753416,-73.966833,NYCT_6738,40.766002,-73.994918,W 50 ST/11 AV,approaching,42,2017-12-01 00:06:22,24:03:00
2017-12-01 00:06:10,1,Bx11,W FARMS RD/WESTCHESTER AV,40.825047,-73.891564,WASHINGTON HEIGHTS  G W BRIDGE,40.849034,-73.93731,NYCT_293,40.838693,-73.913435,E 170 ST/GRAND CONCOURSE,at stop,2,2017-12-01 00:06:22,23:59:19
2017-12-01 00:06:01,1,M116,PLEASANT AV/E 120 ST,40.797246,-73.931695,WEST SIDE BWAY - 106 ST XTOWN,40.801329,-73.967601,NYCT_3880,40.7972,-73.931587,PLEASANT AV/E 120 ST,at stop,0,NA,24:05:00
2017-12-01 00:06:18,1,S46,ST GEORGE FERRY/S46 & S96,40.643429,-74.073653,W SHORE PLZ via CASTLETON,40.601971,-74.191329,NYCT_8233,40.631526,-74.146786,WALKER ST/PULASKI AV,< 1 stop away,156,2017-12-01 00:06:43,23:55:15
2017-12-01 00:05:50,1,S79-SBS,4 AV/86 ST,40.622658,-74.028343,SELECT BUS SI MALL via HYLAN,40.583351,-74.161813,NYCT_4272,40.566829,-74.113534,HYLAN BL/LINDBERGH AV,at stop,0,2017-12-01 00:06:22,24:02:46
2017-12-01 00:06:12,0,B82,STILLWELL TERMINAL BUS LOOP,40.577079,-73.981296,SPRING CRK TWRS SEAVIEW AV via KINGS HWY,40.642991,-73.878325,NYCT_7104,40.60146,-73.994316,BAY PY/86 ST,approaching,128,2017-12-01 00:06:37,23:57:56
2017-12-01 00:06:01,0,B41,FLATBUSH AV/KINGS PLAZA,40.609251,-73.92154,DNTWN BKLYN CADMAN PLZ via FLATBSH,40.695406,-73.990781,NYCT_4533,40.639526,-73.954671,FLATBUSH AV/AV D,< 1 stop away,170,2017-12-01 00:06:50,24:04:53
2017-12-01 00:05:59,0,Q48,DITMARS BL/102 ST,40.768659,-73.868283,FLUSHING MAIN ST STA,40.75944,-73.830342,NYCT_7367,40.761435,-73.86053,108 ST/ASTORIA BL,approaching,109,2017-12-01 00:06:22,23:59:55
2017-12-01 00:06:13,0,Bx15,ST CLAIRE PL/W 125 ST,40.817065,-73.959775,FORDHAM PLZ via 3 AV,40.86099,-73.890265,NYCT_5880,40.846463,-73.896275,3 AV/E TREMONT AV,approaching,69,NA,23:58:00
2017-12-01 00:05:22,1,Q4,235 ST/LINDEN BL,40.690366,-73.727479,JAMAICA PRSNS - ARCHR via LINDEN,40.701681,-73.802477,NYCT_8453,40.69519,-73.781977,MERRICK BL/110 AV,approaching,149,2017-12-01 00:06:22,23:57:00
2017-12-01 00:06:13,1,Bx19,SOUTHERN BL/BOTANICAL GARDENS,40.861148,-73.88101,RIVRBNK PK via SOUTHRN via 149 ST,40.826771,-73.955412,NYCT_5937,40.839499,-73.886469,SOUTHERN BL/E 174 ST,< 1 stop away,239,2017-12-01 00:07:17,24:06:33
2017-12-01 00:06:09,1,B6,LIVONIA AV/ASHFORD ST,40.666382,-73.883617,BENSONHURST HARWAY AV,40.592947,-73.993383,NYCT_4867,40.633162,-73.937105,GLENWOOD RD/ALBANY AV,< 1 stop away,179,2017-12-01 00:06:43,23:48:14
2017-12-01 00:06:15,0,Q44-SBS,MERRICK BL/ARCHER AV,40.704907,-73.793306,SELECT BUS BRONX ZOO via MAIN ST,40.842458,-73.877118,NYCT_5999,40.710494,-73.818782,MAIN ST/UNION TPKE,0.6 miles away,894,2017-12-01 00:08:41,24:02:25
2017-12-01 00:06:16,1,S52,ST GEORGE FERRY/S42 & S52,40.643539,-74.073325,SI HOSP SEAVIEW AV,40.58674,-74.086583,NYCT_7019,40.594878,-74.076094,MC CLEAN AV/MALLORY AV,< 1 stop away,187,2017-12-01 00:06:51,23:59:32
2017-12-01 00:06:05,0,S44,YUKON AV/KMART DWY,40.575645,-74.16715,ST GEORGE FERRY,40.643743,-74.073214,NYCT_8298,40.63823,-74.108739,HENDERSON AV/BARD AV,approaching,85,2017-12-01 00:06:22,24:06:50
2017-12-01 00:06:12,1,X10,E 57 ST/3 AV,40.76043,-73.967671,PT RICHMOND via NARROWS RD via GANNON AV,40.633696,-74.129779,NYCT_2663,40.608126,-74.145274,N GANNON AV / WILLOWBROOK RD,< 1 stop away,158,2017-12-01 00:06:32,24:02:52
2017-12-01 00:05:49,1,X10,E 57 ST/3 AV,40.76043,-73.967671,PT RICHMOND via NARROWS RD via GANNON AV,40.633696,-74.129779,NYCT_2604,40.633685,-74.136302,PORT RICHMOND AV/ALBION PL,approaching,102,NA,23:57:12
2017-12-01 00:06:11,0,M104,W 41 ST/8 AV,40.756549,-73.990123,W HARLEM 129 ST via BWAY,40.814906,-73.955044,NYCT_6417,40.795675,-73.970918,BROADWAY/W 99 ST,approaching,137,2017-12-01 00:07:01,24:05:09
2017-12-01 00:05:51,1,M14A,GRAND ST/FDR DR,40.713264,-73.977982,ABINGDON SQ CROSSTOWN,40.73767,-74.005766,NYCT_5281,40.723359,-73.985499,AV A/E 3 ST,approaching,69,2017-12-01 00:06:22,23:42:59
2017-12-01 00:06:05,0,B82,STILLWELL TERMINAL BUS LOOP,40.577079,-73.981296,SPRING CRK TWRS SEAVIEW AV via KINGS HWY,40.642991,-73.878325,NYCT_6614,40.650678,-73.884859,PENNSYLVANIA AV/VANDALIA AV,approaching,33,2017-12-01 00:06:48,24:01:55
2017-12-01 00:05:49,0,Bx28,VALENTINE AV/E 192 ST,40.864076,-73.894613,CO-OP CITY EARHART LA via GUNHILL,40.860826,-73.822669,NYCT_8341,40.879561,-73.878888,E GUN HILL RD/TRYON AV,< 1 stop away,340,2017-12-01 00:07:53,24:11:19
2017-12-01 00:06:04,1,B52,PALMETTO ST/ST NICHOLAS AV,40.700421,-73.909993,DNTWN BKLYN TILLARY ST via GATES,40.693939,-73.990314,NYCT_6577,40.68725,-73.941582,GATES AV/THROOP AV,at stop,6,2017-12-01 00:06:22,24:06:00
2017-12-01 00:05:48,1,B46,WASHINGTON PLZ/LANE3,40.709392,-73.95952,KINGS PLAZA via UTICA,40.60914,-73.921443,NYCT_5067,40.676795,-73.930366,UTICA AV/DEAN ST,approaching,88,2017-12-01 00:06:22,24:00:12
2017-12-01 00:06:00,1,B44,WASHINGTON PLZ/WASHINGTON PLZ,40.709285,-73.959526,EMMONS AV,40.584028,-73.938408,NYCT_4599,40.584286,-73.932133,EMMONS AV/NOSTRAND AV,< 1 stop away,531,2017-12-01 00:07:10,24:06:00
2017-12-01 00:06:13,1,Bx19,SOUTHERN BL/BOTANICAL GARDENS,40.861148,-73.88101,HAMILTON HTS  BWAY-145 ST,40.826407,-73.950176,NYCT_5956,40.86022,-73.88063,SOUTHERN BL/E FORDHAM RD,< 1 stop away,454,2017-12-01 00:07:13,00:17:00
2017-12-01 00:05:49,1,B68,PROSPECT PK SW/BARTEL PRITCHARD SQ,40.660699,-73.979409,CONEY ISLAND STILLWELL AV via C I AV,40.576991,-73.981426,NYCT_799,40.578441,-73.981796,STILLWELL/TERMINAL,< 1 stop away,171,2017-12-01 00:06:22,24:07:00
2017-12-01 00:05:59,0,M20,STATE ST/WHITEHALL ST,40.70242,-74.013049,LINCOLN CENTER 66 ST via 8 AV,40.771797,-73.982364,NYCT_6742,40.748365,-73.996249,8 AV/W 28 ST,approaching,46,2017-12-01 00:06:22,23:57:22
2017-12-01 00:06:15,0,B2,E 16 ST/QUENTIN RD,40.607383,-73.957178,KINGS PLAZA,40.60943,-73.921754,NYCT_4607,40.611206,-73.929088,AV S/COLEMAN ST,approaching,139,2017-12-01 00:06:39,24:08:29
2017-12-01 00:05:52,0,M55,STATE ST/WHITEHALL ST,40.70242,-74.013049,44 ST 6 AV,40.755986,-73.982997,NYCT_5214,40.730946,-74.001477,AV OF THE AMERICAS/WAVERLY PL,< 1 stop away,267,2017-12-01 00:07:07,24:01:17
2017-12-01 00:05:56,0,Q58,PALMETTO ST/MYRTLE AV,40.700178,-73.910254,FLUSHING MAIN ST,40.757344,-73.829362,NYCT_7255,40.74425,-73.861433,CORONA AV/104 ST,< 1 stop away,267,2017-12-01 00:06:47,23:57:07
2017-12-01 00:06:15,1,B52,PALMETTO ST/ST NICHOLAS AV,40.700421,-73.909993,DNTWN BKLYN TILLARY ST via GATES,40.693939,-73.990314,NYCT_6552,40.693922,-73.990411,CADMAN PZ W/TILLARY ST,< 1 stop away,195,NA,NA
2017-12-01 00:05:47,0,B17,SEAVIEW AV/E 108 ST,40.639112,-73.881742,CROWN HTS EASTERN PKY,40.668556,-73.931625,NYCT_6817,40.66869,-73.93303,EASTERN PY/UTICA AV,approaching,119,2017-12-01 00:06:23,24:09:00
2017-12-01 00:05:48,0,B46,KINGS PLAZA,40.609564,-73.921817,BRIDGE PLZ via UTICA,40.709404,-73.959565,NYCT_7364,40.656015,-73.930841,UTICA AV/WINTHROP ST,< 1 stop away,296,2017-12-01 00:07:15,24:08:29
2017-12-01 00:05:53,0,B15,MARCUS GARVEY BL/BROADWAY,40.699722,-73.941516,JFK AIRPORT,40.646909,-73.779564,NYCT_7111,40.644639,-73.799141,JFK AIRPORT/TERMINAL 5 AirTrain STATION,1.3 miles away,2144,2017-12-01 00:09:14,23:57:00
2017-12-01 00:06:10,0,Q43,ARCHER AV/SUTPHIN BL,40.700505,-73.807825,FLORAL PARK 268 ST via HILLSIDE,40.738702,-73.701458,NYCT_8037,40.723692,-73.755688,HILLSIDE AV/212 ST,< 1 stop away,214,2017-12-01 00:06:48,24:04:29
2017-12-01 00:05:54,1,X1,CENTRAL PARK S/6 AV,40.766314,-73.977491,ELTNGVLE TRANST CTR via HYLAN BL RICH AV,40.560836,-74.17112,NYCT_2670,40.555313,-74.12955,HYLAN BL/BAY TER,< 1 stop away,474,2017-12-01 00:06:44,24:05:40
2017-12-01 00:06:09,0,M11,BETHUNE ST/GREENWICH ST,40.736989,-74.006358,133 ST - BROADWAY,40.818255,-73.956111,NYCT_6712,40.81808,-73.956409,BROADWAY/W 133 ST,at stop,29,2017-12-01 00:06:22,24:03:00
2017-12-01 00:05:51,0,B8,4 AV/95 ST,40.616105,-74.031146,BROWNSVILLE ROCKAWAY AV,40.656047,-73.907383,NYCT_452,40.636429,-73.958185,FOSTER AV/OCEAN AV,at stop,16,2017-12-01 00:06:22,24:07:15
2017-12-01 00:05:50,1,Q85,243 ST/147 AV,40.657737,-73.741214,JAMAICA PRSNS - ARCHR,40.701681,-73.802477,NYCT_8420,40.673228,-73.763943,BEDELL ST/FARMERS BL,approaching,113,2017-12-01 00:06:26,24:05:19
2017-12-01 00:05:49,0,M42,12 AV/42 ST,40.762148,-74.00144,UN - 1 AV CROSSTOWN,40.748005,-73.969803,NYCT_3923,40.755864,-73.986544,W 42 ST/BROADWAY,approaching,120,2017-12-01 00:06:45,24:04:00
2017-12-01 00:05:10,1,Q48,ROOSEVELT AV/MAIN ST,40.759584,-73.830302,LAGUARDIA AIRPORT,40.768643,-73.868269,NYCT_4453,40.768801,-73.869854,23 AV/97 ST,< 1 stop away,293,2017-12-01 00:06:22,24:05:02
2017-12-01 00:06:04,0,Q4,TEARDROP/LAYOVER,40.701747,-73.802398,CAMBRIA HTS 235 ST via LINDEN,40.690804,-73.727581,NYCT_4910,40.690825,-73.727576,235 ST / LINDEN BL,at stop,0,2017-12-01 00:06:22,23:58:00
2017-12-01 00:05:46,0,Bx28,VALENTINE AV/E 192 ST,40.864076,-73.894613,CO-OP CITY EARHART LA via GUNHILL,40.860826,-73.822669,NYCT_4412,40.874078,-73.856077,E GUN HILL RD/LACONIA AV,approaching,96,2017-12-01 00:06:22,24:05:15
2017-12-01 00:05:56,0,Q58,PALMETTO ST/MYRTLE AV,40.700178,-73.910254,FLUSHING MAIN ST,40.757344,-73.829362,NYCT_6627,40.719703,-73.902579,FRESH POND RD/59 AV,at stop,0,NA,24:06:25
2017-12-01 00:06:14,0,Bx33,W 135 ST/ST NICHOLAS AV,40.816959,-73.947806,PT MORRIS 132 ST,40.79965,-73.9116,NYCT_691,40.813008,-73.929961,E 138 ST/CANAL ST W,approaching,151,2017-12-01 00:06:51,24:07:10
2017-12-01 00:06:18,0,B46,KINGS PLAZA,40.609564,-73.921817,BRIDGE PLZ via UTICA,40.709404,-73.959565,NYCT_4603,40.709454,-73.959689,WASHINGTON PLZ/LANE3,at stop,11,2017-12-01 00:06:22,23:53:00
2017-12-01 00:06:20,0,M10,8 AV/W  57 ST,40.766762,-73.982741,HARLEM 159 ST via 8 AV,40.831209,-73.935693,NYCT_6721,40.821864,-73.942628,FRED DOUGLASS BL/W 145 ST,< 1 stop away,164,2017-12-01 00:06:58,24:02:45
2017-12-01 00:05:55,0,Q24,PATCHEN AV/LAFAYETTE AV,40.692479,-73.927904,JAMAICA  168 ST via ATLANTIC,40.704442,-73.792612,NYCT_6836,40.696328,-73.817003,ATLANTIC AV/132 ST,at stop,13,2017-12-01 00:06:22,24:06:21
2017-12-01 00:06:13,1,B13,WYCKOFF AV/DE KALB AV,40.704324,-73.91937,SPRING CREEK GATEWAY MALL,40.652821,-73.876756,NYCT_4434,40.651311,-73.875646,GATEWAY CTR TERM/GATEWAY DR,< 1 stop away,191,2017-12-01 00:06:44,24:00:00
2017-12-01 00:06:20,1,M60-SBS,LGA/TERMINAL D,40.768386,-73.862535,SELECT BUS WEST SIDE BWAY - 106 ST,40.801424,-73.968241,NYCT_5981,40.811258,-73.953751,AMSTERDAM AV/W 125 ST,< 1 stop away,394,2017-12-01 00:08:17,23:46:05
2017-12-01 00:06:11,1,Bx15,3 AV/E FORDHAM RD,40.86063,-73.890797,W. HARLEM 12 AV via 3 AV via 125 ST,40.817913,-73.960168,NYCT_5604,40.817857,-73.960279,W 125 ST/12 AV,at stop,0,NA,23:58:00
2017-12-01 00:05:50,1,X1,CENTRAL PARK S/6 AV,40.766314,-73.977491,ELTNGVLE TRANST CTR via HYLAN BL RICH AV,40.560836,-74.17112,NYCT_2694,40.559422,-74.124953,HYLAN BL/MONTREAL AV,approaching,107,2017-12-01 00:06:22,23:51:26
2017-12-01 00:05:56,1,X17,E 57 ST/3 AV,40.76043,-73.967671,ARDEN HTS HUGENOT AV via NJ via DRMGOOLE,40.543643,-74.196718,NYCT_2498,40.71013,-74.009711,BROADWAY/CORTLANDT ST,at stop,21,2017-12-01 00:06:22,24:01:24
2017-12-01 00:06:04,0,M57,W 72 ST/BROADWAY,40.779034,-73.982412,EAST SIDE YORK - 60 ST XTOWN,40.759519,-73.959889,NYCT_6747,40.75931,-73.965301,E 57 ST/2 AV,approaching,44,2017-12-01 00:06:37,24:04:57
2017-12-01 00:06:00,0,B3,25 AV/HARWAY AV,40.593023,-73.992179,BERGEN BCH E 71 ST via AV U,40.61988,-73.907262,NYCT_4895,40.601875,-73.934812,AV U/BURNETT ST,< 1 stop away,174,2017-12-01 00:06:40,24:06:45
2017-12-01 00:06:16,0,B25,FRONT ST / YORK ST,40.702514,-73.991915,BWAY JCT ALABAMA AV via FULTON,40.676719,-73.900118,NYCT_7105,40.676756,-73.900185,EAST NEW YORK AV/ALABAMA AV,at stop,3,NA,23:53:00
2017-12-01 00:06:02,0,Q20A,MERRICK BL/ARCHER AV,40.704907,-73.793306,COLLEGE PT via MAIN ST via 20 AV,40.784147,-73.845503,NYCT_7421,40.716388,-73.816392,MAIN ST/UNION TPKE,< 1 stop away,186,2017-12-01 00:06:49,24:07:00
2017-12-01 00:06:01,1,Q31,FRANCIS LEWIS BL/27 AV,40.772628,-73.795068,JAMAICA LIRR STA SUTPHIN BL,40.700502,-73.807842,NYCT_7383,40.708371,-73.791671,169 ST/JAMAICA AV,< 1 stop away,165,2017-12-01 00:06:34,24:08:47
2017-12-01 00:06:19,0,M11,BETHUNE ST/GREENWICH ST,40.736989,-74.006358,133 ST - BROADWAY,40.818255,-73.956111,NYCT_6370,40.784799,-73.977121,AMSTERDAM AV/W 83 ST,approaching,151,2017-12-01 00:06:48,24:10:06
2017-12-01 00:05:57,0,Bx12,BROADWAY/ISHAM ST,40.868075,-73.919807,BAY PLAZA via FORDHAM RD via PELHAM PKY,40.866044,-73.826723,NYCT_4775,40.866007,-73.831272,BAY PLAZA BL/OPP STAPLES,< 1 stop away,253,2017-12-01 00:06:28,23:57:25
2017-12-01 00:05:59,0,Bx41,3 AV/151 ST,40.8171,-73.91603,WILLIAMSBRIDGE GUN HILL RD via WEBSTER,40.877934,-73.866586,NYCT_5744,40.877879,-73.868393,E GUN HILL RD/OLINVILLE AV,at stop,20,NA,24:04:57
2017-12-01 00:05:54,1,Q85,WEST CIRCLE DR /PARKING STRUCTURE,40.661908,-73.723262,JAMAICA PRSNS - ARCHR,40.701681,-73.802477,NYCT_8079,40.691508,-73.779001,MERRICK BL/LINDEN BL,at stop,6,2017-12-01 00:06:22,23:58:00
2017-12-01 00:06:11,1,B6,LIVONIA AV/ASHFORD ST,40.666382,-73.883617,BENSONHURST HARWAY AV,40.592947,-73.993383,NYCT_4880,40.633517,-73.952123,BEDFORD AV/GLENWOOD RD,approaching,109,2017-12-01 00:06:31,24:09:13
2017-12-01 00:06:15,0,M96,W 96 ST/WEST END AV,40.794933,-73.972689,EAST SIDE 1 AV CROSSTOWN,40.784222,-73.944744,NYCT_6654,40.794476,-73.971373,W 96 ST/BROADWAY,at stop,2,NA,24:06:00
2017-12-01 00:05:43,1,M2,168 ST/AUDUBON AV,40.840644,-73.938543,EAST VILLAGE 8 ST via 5 AV,40.73028,-73.990532,NYCT_3859,40.837332,-73.937024,EDGECOMBE AV/W 164 ST,approaching,149,2017-12-01 00:06:22,24:07:39
2017-12-01 00:06:19,1,B16,LINCOLN RD/FLATBUSH AV,40.660843,-73.961463,BAY RIDGE SHORE RD,40.611716,-74.035076,NYCT_779,40.633386,-74.005112,FT HAMILTON PY/60 ST,approaching,65,2017-12-01 00:06:29,24:03:00
2017-12-01 00:05:58,0,Bx42,SEDGWICK AV/CEDAR AV,40.852352,-73.920231,THROGS NECK HARDING AV via TREMONT,40.813007,-73.827225,NYCT_4774,40.839288,-73.836427,E TREMONT AV/LATTING ST,approaching,111,2017-12-01 00:06:22,24:05:04
2017-12-01 00:05:56,1,Bx4,LANE AV/BENSON AV,40.840612,-73.843231,THE HUB 3 AV via WESTCHTR AV,40.816234,-73.915859,NYCT_1283,40.833911,-73.854435,WESTCHESTER AV/OLMSTEAD AV,at stop,0,2017-12-01 00:06:22,24:03:54
2017-12-01 00:06:12,0,B68,STILLWELL TERMINAL BUS LOOP,40.577039,-73.981439,WINDSOR TERR PRTCHRD SQ vi C I AV,40.660853,-73.97939,NYCT_383,40.589283,-73.960504,CONEY ISLAND AV/AV Y,approaching,53,2017-12-01 00:06:25,23:58:04
2017-12-01 00:05:51,0,B44,EMMONS AV/NOSTRAND AV,40.584026,-73.93844,WILLAMSBURG BRIDGE PLZ via NOSTRAND,40.709315,-73.959588,NYCT_4617,40.648807,-73.946447,NEW YORK AV/SNYDER AV,approaching,66,2017-12-01 00:06:22,24:02:17
2017-12-01 00:06:04,1,Bx34,VAN CORTLANDT PK E/E 242 ST,40.902659,-73.868376,FORDHAM CTR - VALENTINE AV,40.862502,-73.895797,NYCT_8350,40.862786,-73.895484,VALENTINE AV/FORDHAM RD,approaching,40,2017-12-01 00:06:22,24:01:00
2017-12-01 00:05:49,1,M103,E 126 ST/2 AV,40.803985,-73.934214,CITY HALL via LEX AV,40.711746,-74.00738,NYCT_5644,40.719886,-73.994219,BOWERY/GRAND ST,< 1 stop away,207,2017-12-01 00:06:43,23:53:16
2017-12-01 00:06:10,0,Q46,QUEENS BL/78 AV,40.715234,-73.83202,LK SUCCESS LIJ HOSP via UNION,40.754893,-73.706588,NYCT_8049,40.7468,-73.712266,UNION TPKE/260 ST,approaching,69,2017-12-01 00:06:22,24:07:00
2017-12-01 00:06:02,1,B57,FLUSHING AV/61 ST,40.721061,-73.904087,RED HOOK IKEA TERMINAL,40.672325,-74.011323,NYCT_4556,40.709631,-73.921642,FLUSHING AV/JOHNSON AV,approaching,81,2017-12-01 00:06:22,24:04:21
2017-12-01 00:05:49,1,B45,ST JOHNS PL/RALPH AV,40.670227,-73.923231,DNTWN BKLYN COURT ST,40.691439,-73.991194,NYCT_6796,40.691499,-73.991165,LIVINGSTON ST/COURT ST,at stop,0,NA,24:04:00
2017-12-01 00:05:59,0,S78,BRICKTOWN SHOPPING/CENTER,40.530102,-74.226292,ST GEORGE FERRY via HYLAN,40.643585,-74.07261,NYCT_8161,40.526616,-74.170753,HYLAN BL/LIPSETT AV,< 1 stop away,178,2017-12-01 00:06:22,24:07:25
2017-12-01 00:05:26,1,S52,ST GEORGE FERRY/S42 & S52,40.643539,-74.073325,SI HOSP SEAVIEW AV,40.58674,-74.086583,NYCT_8185,40.641898,-74.078037,ST MARKS PL/HYATT ST,at stop,4,2017-12-01 00:06:22,24:04:05
2017-12-01 00:06:02,1,M7,W 146 ST/MALCOLM X BL,40.821152,-73.935977,14 ST via COLUMBUS via 7 AV,40.737412,-73.996698,NYCT_6751,40.811649,-73.942744,MALCOLM X BL/W 129 ST,< 1 stop away,212,2017-12-01 00:06:48,24:04:45
2017-12-01 00:05:50,0,B63,SHORE RD/3 AV,40.612256,-74.035884,PIER 6 BKLYN BRIDGE PK via 5 AV,40.692204,-74.000343,NYCT_353,40.666253,-73.988736,5 AV/14 ST,at stop,5,2017-12-01 00:06:22,23:57:39
2017-12-01 00:05:51,1,X10,E 57 ST/3 AV,40.76043,-73.967671,PT RICHMOND via NARROWS RD via GANNON AV,40.633696,-74.129779,NYCT_2646,40.753751,-73.980691,5 AV/W 40 ST,< 1 stop away,187,2017-12-01 00:06:48,24:02:00
2017-12-01 00:06:12,0,B8,4 AV/95 ST,40.616105,-74.031146,BROWNSVILLE ROCKAWAY AV,40.656047,-73.907383,NYCT_796,40.603882,-74.006178,18 AV/BENSON AV,< 1 stop away,212,2017-12-01 00:06:53,24:00:56
2017-12-01 00:06:01,1,B41,CADMAN PLAZA WEST/JOHNSON ST,40.695535,-73.990829,KINGS PLAZA via FLATBSH,40.609212,-73.921513,NYCT_4235,40.644322,-73.957943,FLATBUSH AV/DORCHESTER RD,< 1 stop away,257,2017-12-01 00:07:26,24:08:08
2017-12-01 00:06:17,0,B16,SHORE RD/4 AV,40.611761,-74.03512,LEFRTS GDNS PROSPCT PK STA,40.660858,-73.961379,NYCT_364,40.639436,-73.983942,14 AV/39 ST,at stop,12,2017-12-01 00:06:22,24:02:25
2017-12-01 00:05:41,1,M15,E 126 ST/2 AV,40.80323,-73.932451,SOUTH FERRY via 2 AV,40.701609,-74.012226,NYCT_6075,40.796348,-73.938249,2 AV/E 113 ST,< 1 stop away,196,2017-12-01 00:06:22,24:03:55
2017-12-01 00:06:08,1,Bx17,FORDHAM PLAZA/BUS TERMINAL,40.860228,-73.890968,PT MORRIS 135 ST,40.804846,-73.918554,NYCT_698,40.852623,-73.884277,CROTONA AV/E 183 ST,approaching,142,2017-12-01 00:06:36,24:05:00
2017-12-01 00:06:11,0,S79-SBS,MARSH AV/RING RD,40.583223,-74.161951,SELECT BUS BAY RIDGE 86 ST STATION,40.622521,-74.028343,NYCT_4249,40.607028,-74.043073,92 ST/GATLING PL,1.2 miles away,1910,2017-12-01 00:08:43,24:08:25
2017-12-01 00:05:31,1,S57,RICHMOND TER/PARK AV,40.640046,-74.130627,NEW DORP MILL RD,40.565967,-74.113134,NYCT_8267,40.598188,-74.131435,BRIELLE AV/ROANOKE ST,< 1 stop away,185,2017-12-01 00:06:22,23:50:24
2017-12-01 00:06:04,0,M66,W 66 ST/WEST END AV,40.776008,-73.98702,EAST SIDE YORK AV CROSSTOWN,40.764252,-73.95575,NYCT_5203,40.764504,-73.956127,EAST 68 ST/YORK AV,approaching,41,2017-12-01 00:06:22,23:57:00
2017-12-01 00:06:20,0,M103,PARK ROW/BEEKMAN ST,40.711859,-74.006156,E HARLEM 125 ST via 3 AV,40.804268,-73.935301,NYCT_6043,40.79342,-73.943323,3 AV/E 109 ST,approaching,46,2017-12-01 00:06:26,24:08:09
2017-12-01 00:06:11,1,Q43,HILLSIDE AV/268 ST,40.738768,-73.701868,JAMAICA LIRR STA via HILLSDE,40.700502,-73.807842,NYCT_6866,40.70871,-73.799265,HILLSIDE AV/162 ST,approaching,122,NA,23:54:24
2017-12-01 00:05:56,0,B49,ORIENTAL BL/MACKENZIE ST,40.578139,-73.939799,BD-STY FLTN ST via OCEAN AV via ROGRS AV,40.680644,-73.955715,NYCT_4951,40.613298,-73.954046,OCEAN AV/AV O,approaching,62,2017-12-01 00:06:22,24:07:10
2017-12-01 00:06:16,0,B9,SHORE RD/71 ST,40.636852,-74.036257,FLATBUSH AV,40.622875,-73.937349,NYCT_472,40.616889,-73.978761,60 ST/BAY PY,approaching,73,2017-12-01 00:06:36,24:07:00
2017-12-01 00:06:17,1,M1,MALCOLM X BL/W 146 ST,40.821055,-73.93583,E VILLAGE 8 ST via 5 AV,40.73028,-73.990532,NYCT_3904,40.758031,-73.977568,5 AV/W 49 ST,at stop,4,2017-12-01 00:06:22,24:00:36
2017-12-01 00:05:52,0,B54,JAY ST/MYRTLE PLZ,40.694503,-73.987123,RIDGEWOOD TERM via MYRTLE,40.700528,-73.91015,NYCT_6511,40.698757,-73.918839,MYRTLE AV/KNICKERBOCKER AV,approaching,33,2017-12-01 00:06:22,24:02:02
2017-12-01 00:05:49,0,M104,W 41 ST/8 AV,40.756549,-73.990123,W HARLEM 129 ST via BWAY,40.814906,-73.955044,NYCT_6368,40.763685,-73.985088,8 AV/W 52 ST,at stop,19,2017-12-01 00:06:22,24:03:18
2017-12-01 00:05:55,0,M60-SBS,BROADWAY/W 106 ST,40.801818,-73.967642,SELECT BUS SERVICE LA GUARDIA AIRPORT,40.768074,-73.862089,NYCT_5863,40.781655,-73.92831,HOYT AV/31 ST,5.0 miles away,8072,2017-12-01 00:15:17,24:03:14
2017-12-01 00:06:06,1,Bx4,LANE AV/BENSON AV,40.840612,-73.843231,THE HUB 3 AV via WESTCHTR AV,40.816234,-73.915859,NYCT_5726,40.815683,-73.912147,E 149 ST/ST ANNS AV,< 1 stop away,206,2017-12-01 00:06:54,24:06:46
2017-12-01 00:06:17,1,M5,BROADWAY/W 178 ST,40.848523,-73.937704,31 ST 6 AV,40.74779,-73.988832,NYCT_3847,40.775874,-73.982262,BROADWAY/W 68 ST,approaching,51,2017-12-01 00:06:29,24:01:15
2017-12-01 00:06:13,1,B36,NOSTRAND AV/GRAVESEND NECK RD,40.599972,-73.941874,CONEY ISLAND W 37 ST,40.573429,-74.002479,NYCT_7171,40.573238,-74.002109,SURF AV/W 37 ST,approaching,48,2017-12-01 00:06:26,24:07:00
2017-12-01 00:06:18,0,B13,GATEWAY CTR TERM/GATEWAY DR,40.65265,-73.87703,WYCKOFF HTS HOSP WYCKOFF AV DEKALB AV,40.704385,-73.919467,NYCT_7208,40.661786,-73.866431,CRESCENT ST/COZINE AV,approaching,92,2017-12-01 00:06:31,23:48:21
2017-12-01 00:06:03,1,M86-SBS,E 92 ST/YORK AV,40.779755,-73.944535,SELECT BUS WESTSIDE WEST END AV CROSSTWN,40.788242,-73.976277,NYCT_5834,40.786385,-73.971936,W 86 ST/COLUMBUS AV,approaching,55,2017-12-01 00:06:23,24:00:57
2017-12-01 00:05:51,0,M5,6 AV/W 31 ST,40.748042,-73.988957,WASHINGTON HEIGHTS  GW BRIDGE,40.848264,-73.937455,NYCT_6422,40.848305,-73.93743,W 178 ST/BROADWAY,at stop,0,2017-12-01 00:06:22,24:12:00
2017-12-01 00:05:53,0,M14D,11 AV/W 17 ST,40.744841,-74.008147,LOWER E. SIDE DELANCY-FDR CROSSTOWN,40.716391,-73.980131,NYCT_5278,40.731245,-73.982332,E 14 ST/1 AV,at stop,20,2017-12-01 00:06:22,23:58:49
2017-12-01 00:05:57,0,B43,LINCOLN RD/FLATBUSH AV,40.660843,-73.961463,GREENPOINT BOX ST,40.737197,-73.955757,NYCT_457,40.71482,-73.944433,GRAHAM AV/METROPOLITAN AV,at stop,4,2017-12-01 00:06:22,24:07:11
2017-12-01 00:05:55,0,Q13,39 AV /138 ST,40.76101,-73.827042,FT TOTTEN,40.791352,-73.780952,NYCT_4680,40.764405,-73.825483,NORTHERN BL/BOWNE ST,at stop,0,NA,24:04:13
2017-12-01 00:05:55,0,Q32,W 32 ST/7 AV,40.749406,-73.991017,JACKSON HTS NORTHERN - 81 via ROOSVLT,40.755323,-73.886137,NYCT_7371,40.755244,-73.886259,81 ST/NORTHERN BL,at stop,6,2017-12-01 00:06:22,23:52:00
2017-12-01 00:05:56,0,Q12,ROOSEVELT AV/LAYOVER,40.758997,-73.831756,LITTLE NECK GLENWOOD ST VIA NORTHERN,40.771766,-73.733304,NYCT_4191,40.768031,-73.737977,NORTHERN BL/MARATHON PY,at stop,29,2017-12-01 00:06:22,24:09:04
2017-12-01 00:06:11,1,B38,METROPOLITAN AV/STARR ST,40.71335,-73.914305,DNTWN BKLYN TILLARY ST,40.696117,-73.990995,NYCT_4551,40.702017,-73.921483,DE KALB AV/KNICKERBOCKER AV,< 1 stop away,160,2017-12-01 00:06:46,23:57:58
2017-12-01 00:05:45,1,Q3,165 ST/TERMINAL,40.707557,-73.795502,JFK AIRPORT via FARMERS BL,40.647137,-73.779426,NYCT_8112,40.655849,-73.79209,148 ST/S. SERVICE CT,approaching,102,2017-12-01 00:06:22,24:04:27
2017-12-01 00:06:07,1,M100,BROADWAY/W 219 ST,40.871967,-73.913037,E HARLM 1 AV-125 ST via BDWY via AMSTRDM,40.802273,-73.931143,NYCT_4373,40.832248,-73.942493,AMSTERDAM AV/W 156 ST,approaching,42,2017-12-01 00:06:22,24:02:00
2017-12-01 00:05:56,1,Bx41,WHITE PLAINS RD/E GUN HILL RD,40.877853,-73.866668,THE HUB 150 ST via WEBSTER,40.816888,-73.917485,NYCT_4793,40.864175,-73.888213,WEBSTER AV/E 194 ST,approaching,148,2017-12-01 00:06:28,24:03:42
2017-12-01 00:05:49,1,X27,E 57 ST/MADISON AV,40.762563,-73.972796,BAY RIDGE SHORE RD via BROADWAY,40.611763,-74.035126,NYCT_2441,40.663094,-73.998669,WAKEMAN PL/RIDGE BL,2.3 miles away,3748,2017-12-01 00:11:11,24:03:44
2017-12-01 00:06:18,1,Q44-SBS,BOSTON RD/E 180 ST,40.842561,-73.878332,SELECT BUS JAMAICA via MAIN ST,40.704933,-73.793318,NYCT_6026,40.832818,-73.861431,CROSS BX SVC RD/PUGSLEY AV,< 1 stop away,402,2017-12-01 00:07:40,23:54:00
2017-12-01 00:05:56,0,B57,BEARD ST/OTSEGO ST,40.672313,-74.011308,MASPETH FRESH POND RD,40.721267,-73.903751,NYCT_7232,40.720905,-73.904303,FLUSHING AV/61 ST,at stop,7,NA,23:46:38
2017-12-01 00:06:08,0,B1,MACKENZIE LOOP (no G-A-R: use 300000),40.578246,-73.939743,BAY RIDGE 4 AV,40.621842,-74.028363,NYCT_4891,40.610745,-74.008418,86 ST/15 AV,< 1 stop away,159,2017-12-01 00:06:43,24:09:05
2017-12-01 00:06:00,0,B4,NARROWS AV/77 ST,40.631834,-74.036377,SHEEPSHEAD BAY KNAPP ST,40.586626,-73.931703,NYCT_444,40.604739,-73.986779,STILLWELL AV/23 AV,at stop,9,2017-12-01 00:06:22,24:05:00
2017-12-01 00:06:10,0,M15,SOUTH ST/WHITEHALL ST,40.701536,-74.012485,EAST HARLEM 125 ST via 1 AV,40.80315,-73.932264,NYCT_6063,40.744154,-73.973242,1 AV/E 34 ST,at stop,4,2017-12-01 00:06:22,23:58:29
2017-12-01 00:05:51,1,Q44-SBS,BOSTON RD/E 180 ST,40.842561,-73.878332,SELECT BUS JAMAICA via MAIN ST,40.704933,-73.793318,NYCT_5993,40.74613,-73.826096,MAIN ST/HORACE HARDING EY N,< 1 stop away,370,2017-12-01 00:07:17,24:02:28
2017-12-01 00:05:54,1,Q20A,COLLEGE PT BL/15 AV,40.784074,-73.845893,JAMAICA  MERRICK BL via 20 AV via MAIN S,40.704933,-73.793318,NYCT_7419,40.724139,-73.820537,MAIN ST/76 AV,< 1 stop away,214,2017-12-01 00:06:31,24:04:17
2017-12-01 00:05:53,0,B4,NARROWS AV/77 ST,40.631834,-74.036377,SHEEPSHEAD BAY KNAPP ST,40.586626,-73.931703,NYCT_352,40.58809,-73.932241,VOORHIES AV/KNAPP ST,at stop,25,2017-12-01 00:06:22,24:04:33
2017-12-01 00:05:50,0,B47,AV U/E 54 ST,40.611007,-73.920407,BED-STUY WOODHULL HOSP via RALPH AV,40.699777,-73.941503,NYCT_6844,40.694417,-73.93069,BROADWAY/LAWTON ST,approaching,81,2017-12-01 00:06:22,24:02:30
2017-12-01 00:06:06,0,M50,12 AV/W 42 ST ISLAND,40.762049,-74.000996,E 49 ST & 1 AV,40.753416,-73.966833,NYCT_3929,40.766572,-73.99696,W 50 ST/12 AV,approaching,48,2017-12-01 00:06:22,23:32:17
2017-12-01 00:06:00,1,Q83,SPRINGFIELD BL/AMBOY LA,40.71776,-73.735479,JAMAICA HILLSIDE - 153 via LIBERTY,40.706795,-73.804099,NYCT_8497,40.705286,-73.739824,SPRINGFIELD BL/112 RD,approaching,105,2017-12-01 00:06:22,00:06:34
2017-12-01 00:05:42,0,Q83,153 ST/HILLSIDE AV,40.707123,-73.804385,227 ST 114 AV via LIBERTY,40.702108,-73.730337,NYCT_6477,40.703803,-73.76861,LIBERTY AV/ELMIRA AV,at stop,10,2017-12-01 00:06:22,24:05:52
2017-12-01 00:05:53,1,Q20A,COLLEGE PT BL/15 AV,40.784074,-73.845893,JAMAICA  MERRICK BL via 20 AV via MAIN S,40.704933,-73.793318,NYCT_4176,40.781664,-73.828448,20 AV/POSTAL FACILITY,approaching,80,2017-12-01 00:06:22,23:55:38
2017-12-01 00:06:10,0,B83,GATEWAY CTR TERM/GATEWAY DR,40.65265,-73.87703,BWAY JCT VN SNDRN AV,40.678139,-73.903574,NYCT_6800,40.661253,-73.886251,VAN SICLEN AV/HEGEMAN AV,approaching,130,2017-12-01 00:06:35,24:04:58
2017-12-01 00:06:11,1,M96,E 97 ST/1 AV,40.784544,-73.945478,WEST SIDE WEST END AV CROSSTOWN,40.795103,-73.97309,NYCT_6720,40.794531,-73.971501,W 96 ST/BROADWAY,at stop,0,NA,24:03:00
2017-12-01 00:05:56,0,Bx36,W 179 ST/BROADWAY,40.849112,-73.93775,SOUNDVIEW PUGSLEY AV,40.820506,-73.851633,NYCT_7818,40.842323,-73.878355,BOSTON RD/E 178 ST,< 1 stop away,165,2017-12-01 00:06:42,23:53:30
2017-12-01 00:06:06,1,M5,BROADWAY/W 178 ST,40.848523,-73.937704,31 ST 6 AV,40.74779,-73.988832,NYCT_6395,40.784686,-73.982948,RIVERSIDE DR/W 76 ST,< 1 stop away,222,2017-12-01 00:06:56,23:31:29
2017-12-01 00:06:14,0,B26,CADMAN PZ W/TILLARY ST,40.695999,-73.990945,RIDGEWOOD TERM via HALSEY,40.699291,-73.910755,NYCT_3982,40.686934,-73.914032,HALSEY ST/BUSHWICK AV,approaching,52,2017-12-01 00:06:32,24:05:01
2017-12-01 00:06:15,1,M8,E 10 ST/AV D,40.725082,-73.975456,WEST ST CROSSTOWN,40.732493,-74.010128,NYCT_3825,40.730488,-73.990329,E 9 ST/4 AV,at stop,2,2017-12-01 00:06:22,24:04:00
2017-12-01 00:05:55,0,B17,SEAVIEW AV/E 108 ST,40.639112,-73.881742,CROWN HTS EASTERN PKY,40.668556,-73.931625,NYCT_6793,40.658659,-73.926495,REMSEN AV/WINTHROP ST,approaching,133,2017-12-01 00:06:29,23:59:58
2017-12-01 00:05:53,0,B61,PROSPECT PK W/18 ST,40.657636,-73.982887,DOWNTOWN BKLYN FULTON MALL via RED HOOK,40.690511,-73.987725,NYCT_379,40.673661,-74.011835,BEARD ST/OTSEGO ST,< 1 stop away,217,2017-12-01 00:06:34,24:00:00
2017-12-01 00:06:18,0,B62,BOERUM PL/SCHERMERHORN ST,40.690567,-73.989366,LI CITY QUEENS PLAZA,40.749703,-73.938966,NYCT_6630,40.701341,-73.982349,NAVY ST/SANDS ST,< 1 stop away,355,2017-12-01 00:07:26,23:59:07
2017-12-01 00:05:57,1,S51,ST GEORGE FERRY/S51 & S81,40.64349,-74.073437,GRANT CITY via BAY ST,40.580952,-74.111446,NYCT_8229,40.633223,-74.075303,BAY ST/GRANT ST,approaching,41,2017-12-01 00:06:22,24:04:09
2017-12-01 00:05:54,0,Q2,165 ST/TERMINAL,40.707831,-73.795422,BELMONT PK 225 ST,40.711598,-73.729152,NYCT_8004,40.712525,-73.784328,HILLSIDE AV/179 ST,at stop,19,2017-12-01 00:06:22,24:02:00
2017-12-01 00:06:06,0,Bx11,W 179 ST/BROADWAY,40.849112,-73.93775,W FARMS RD SOUTHERN BL,40.825272,-73.89143,NYCT_688,40.838326,-73.924738,W 168 ST/NELSON AV,at stop,14,2017-12-01 00:06:22,24:07:21
2017-12-01 00:06:01,1,Q20A,COLLEGE PT BL/15 AV,40.784074,-73.845893,JAMAICA  MERRICK BL via 20 AV via MAIN S,40.704933,-73.793318,NYCT_4692,40.783974,-73.845821,20 AV/COLLEGE PT BL,< 1 stop away,290,2017-12-01 00:06:30,24:20:56
2017-12-01 00:06:19,1,B83,VAN SINDEREN AV/FULTON ST,40.67809,-73.903568,SPRING CREEK GATEWAY MALL,40.652821,-73.876756,NYCT_6807,40.675971,-73.896914,PENNSYLVANIA AV/ATLANTIC AV,approaching,95,2017-12-01 00:06:48,24:06:00
2017-12-01 00:06:08,1,M10,FRED DOUGLASS BL/W 158 ST,40.830954,-73.93599,COLUMBUS CIRCLE via CENTRAL PARK W.,40.766529,-73.981964,NYCT_6408,40.766515,-73.981812,8 AV/W  57 ST,approaching,90,NA,NA
2017-12-01 00:05:56,0,B60,WILLIAMS AV/FLATLANDS AV,40.650074,-73.89147,WILLIAMSBURG BRIDGE PLAZA,40.709534,-73.959549,NYCT_3966,40.701417,-73.926984,WILSON AV/TROUTMAN ST,approaching,101,2017-12-01 00:06:22,24:05:43
2017-12-01 00:06:15,0,Bx31,TREMONT AV/LANE AV,40.840864,-73.842457,WOODLAWN KATONAH AV,40.902777,-73.868318,NYCT_690,40.894959,-73.862276,E 233 ST/WEBSTER  AV,approaching,107,2017-12-01 00:06:42,23:55:17
2017-12-01 00:05:54,0,B35,39 ST/1 AV,40.656455,-74.012243,BROWNSVILLE M GASTON BL via CHURCH,40.656346,-73.907191,NYCT_485,40.647307,-73.99736,39 ST/8 AV,approaching,44,2017-12-01 00:06:22,24:07:00
2017-12-01 00:06:13,0,S66,PARK AV/RICHMOND TE,40.639846,-74.130695,ST GEORGE FERRY via GRYMES HILL,40.643356,-74.072914,NYCT_8191,40.631247,-74.087943,VICTORY BL/AUSTIN PL,< 1 stop away,166,2017-12-01 00:06:37,24:08:48
2017-12-01 00:06:17,0,B25,FRONT ST / YORK ST,40.702514,-73.991915,BWAY JCT ALABAMA AV via FULTON,40.676719,-73.900118,NYCT_6595,40.700511,-73.990905,CADMAN PZ W/MIDDAGH ST,approaching,108,2017-12-01 00:06:48,24:08:35
2017-12-01 00:05:58,0,Q27,SPRINGFIELD BL / 119 AV,40.692741,-73.745099,FLUSHING  MAIN ST STA,40.761747,-73.829532,NYCT_6849,40.760734,-73.829213,138 ST/37 AV,approaching,115,2017-12-01 00:07:00,24:00:00
2017-12-01 00:05:50,1,Bx32,VA HOSPITAL/VA HOSPITAL,40.867352,-73.905628,MOTT HAVEN 136 ST,40.809653,-73.928362,NYCT_738,40.811628,-73.926819,3 AV/E 138 ST,approaching,87,NA,24:03:21
2017-12-01 00:05:50,0,Q46,QUEENS BL/78 AV,40.715234,-73.83202,LK SUCCESS LIJ HOSP via UNION,40.754893,-73.706588,NYCT_6851,40.717094,-73.819405,UNION TP/141 ST,at stop,0,NA,24:04:18
2017-12-01 00:06:00,1,S53,4 AV/86 ST,40.622312,-74.028688,PT RICHMOND,40.640296,-74.13133,NYCT_8241,40.638435,-74.133028,PORT RICHMOND AV/BENNETT ST,at stop,0,NA,24:01:14
2017-12-01 00:06:10,1,S40,ST GEORGE FERRY/S40 & S90,40.643402,-74.074068,GOETHALS RD via RICH TR,40.627538,-74.180421,NYCT_7077,40.645052,-74.077229,RICHMOND TER/STUYVESANT PL,< 1 stop away,176,2017-12-01 00:06:38,24:01:52
2017-12-01 00:06:07,0,S51,LINCOLN AV/RICHMOND RD,40.581245,-74.11199,ST GEORGE FERRY via BAY ST,40.643585,-74.07261,NYCT_7085,40.638622,-74.07578,BAY ST/SLOSSON TE,approaching,101,2017-12-01 00:06:27,24:11:31
2017-12-01 00:06:13,0,Bx13,W 178 ST/FT WASHINGTON AV,40.848493,-73.938558,RIVER AV - 149 ST,40.819692,-73.930046,NYCT_8366,40.844424,-73.923538,OGDEN AV/UNIVERSITY AV,approaching,95,2017-12-01 00:06:30,24:05:00
2017-12-01 00:06:04,1,B36,NOSTRAND AV/GRAVESEND NECK RD,40.599972,-73.941874,CONEY ISLAND W 37 ST,40.573429,-74.002479,NYCT_4881,40.573238,-74.002109,SURF AV/W 37 ST,approaching,48,2017-12-01 00:06:22,24:07:00
2017-12-01 00:05:59,0,B6,HARWAY AV/BAY 37 ST,40.59351,-73.993996,EAST NY NEW LOTS STA,40.66642,-73.883387,NYCT_5092,40.603556,-73.992136,BAY PK/83 ST,approaching,48,2017-12-01 00:06:22,24:01:58
2017-12-01 00:05:56,0,Q44-SBS,MERRICK BL/ARCHER AV,40.704907,-73.793306,SELECT BUS BRONX ZOO via MAIN ST,40.842458,-73.877118,NYCT_6023,40.84232,-73.876896,E 180 ST/DEVOE AV,at stop,22,2017-12-01 00:06:22,23:53:00
2017-12-01 00:06:19,0,M60-SBS,BROADWAY/W 106 ST,40.801818,-73.967642,SELECT BUS SERVICE LA GUARDIA AIRPORT,40.768074,-73.862089,NYCT_5853,40.772576,-73.876223,LAGUARDIA INTERNAL RDY/PARKING LOT #1,approaching,103,2017-12-01 00:06:39,24:00:38
2017-12-01 00:06:10,1,Bx17,FORDHAM PLAZA/BUS TERMINAL,40.860228,-73.890968,PT MORRIS 135 ST,40.804846,-73.918554,NYCT_7694,40.817392,-73.902571,PROSPECT AV/E 156 ST,approaching,40,2017-12-01 00:06:23,24:02:30
2017-12-01 00:06:06,1,M31,E 92 ST/YORK AV,40.779755,-73.944535,CLINTON 11 AV via 57 ST,40.768191,-73.992545,NYCT_6745,40.772368,-73.949721,YORK AV/E 79 ST,< 1 stop away,167,2017-12-01 00:06:46,24:02:39
2017-12-01 00:05:52,0,B14,EASTERN PY/UTICA AV,40.668537,-73.931235,SPRING CREEK STANLEY AV POSTAL FAC,40.664644,-73.863067,NYCT_6623,40.664865,-73.863264,POSTAL FACILITY RD/IN FRONT OF FACILITY,at stop,27,NA,23:49:00
2017-12-01 00:05:55,1,S53,4 AV/86 ST,40.622312,-74.028688,PT RICHMOND,40.640296,-74.13133,NYCT_7053,40.622281,-74.028561,4 AV/86 ST,at stop,0,NA,24:20:00
2017-12-01 00:06:18,1,M34A-SBS,WATERSIDE/WATERSIDE 1,40.737993,-73.973405,SLCT BUS PA BUS TRMNL VIA 34 ST VIA 8 AV,40.75877,-73.991173,NYCT_5986,40.74447,-73.975144,E 34 ST/2 AV,approaching,113,2017-12-01 00:07:23,24:04:14
2017-12-01 00:05:49,1,Bx24,BRUCKNER BL/BURR AV,40.853336,-73.827095,HUTCHINSON METRO CENTER,40.854989,-73.83761,NYCT_8358,40.844081,-73.836037,WESTCHESTER AV/E TREMONT AV,< 1 stop away,625,2017-12-01 00:08:38,24:09:00
2017-12-01 00:05:59,1,B57,FLUSHING AV/61 ST,40.721061,-73.904087,RED HOOK IKEA TERMINAL,40.672325,-74.011323,NYCT_4534,40.675239,-74.009865,DWIGHT ST/DIKEMAN ST,approaching,116,2017-12-01 00:06:23,23:40:42
2017-12-01 00:05:56,0,Bx36,W 179 ST/BROADWAY,40.849112,-73.93775,SOUNDVIEW PUGSLEY AV,40.820506,-73.851633,NYCT_302,40.846081,-73.921641,UNIVERSITY AV/N OF WASHINGTON BDG,at stop,6,2017-12-01 00:06:22,24:06:24
2017-12-01 00:05:39,0,B63,SHORE RD/3 AV,40.612256,-74.035884,PIER 6 BKLYN BRIDGE PK via 5 AV,40.692204,-74.000343,NYCT_249,40.611884,-74.034462,4 AV/100 ST,approaching,142,2017-12-01 00:06:22,24:01:21
2017-12-01 00:06:08,0,B41,E 70 ST/VETERANS AV,40.619935,-73.908708,EMPIRE BL,40.663012,-73.962211,NYCT_5059,40.66268,-73.962115,FLATBUSH AV/EMPIRE BL,approaching,36,2017-12-01 00:06:22,24:02:00
2017-12-01 00:06:02,0,Bx9,E TREMONT AV/E 177 ST,40.839994,-73.879938,RIVERDALE 262 ST,40.910081,-73.896495,NYCT_4724,40.841858,-73.876215,E 180 ST/BOSTON RD,< 1 stop away,254,2017-12-01 00:07:04,24:00:47
2017-12-01 00:06:11,0,Q59,BROADWAY/ROEBLING ST,40.709355,-73.960436,REGO PARK 63 DR via GRAND,40.731204,-73.864458,NYCT_3991,40.709319,-73.96046,BROADWAY/ROEBLING ST,at stop,0,NA,00:03:00
2017-12-01 00:06:15,1,S46,ST GEORGE FERRY/S46 & S96,40.643429,-74.073653,W SHORE PLZ via CASTLETON,40.601971,-74.191329,NYCT_8194,40.638244,-74.075883,VICTORY BL / BAY ST,approaching,68,2017-12-01 00:06:25,00:02:00
2017-12-01 00:06:00,0,M4,W 32 ST/7 AV,40.749406,-73.991017,WASH HTS CABRINI BLV via MADSON via BWAY,40.859014,-73.934248,NYCT_6693,40.830805,-73.947256,BROADWAY/W 153 ST,approaching,122,2017-12-01 00:06:32,23:55:05
2017-12-01 00:05:59,0,B7,KINGS HY/RYDER ST,40.622151,-73.937207,BED-STUY BWAY-HALSEY via KINGS HWY,40.685839,-73.917877,NYCT_4043,40.625404,-73.933741,KINGS HY/TROY AV,at stop,0,NA,24:05:55
2017-12-01 00:05:28,1,X1,CENTRAL PARK S/6 AV,40.766314,-73.977491,ELTNGVLE TRANST CTR via HYLAN BL RICH AV,40.560836,-74.17112,NYCT_2742,40.716883,-74.004015,BROADWAY/THOMAS ST,approaching,139,2017-12-01 00:06:22,23:54:00
2017-12-01 00:06:06,1,X10,E 57 ST/3 AV,40.76043,-73.967671,PT RICHMOND via NARROWS RD via GANNON AV,40.633696,-74.129779,NYCT_2648,40.625449,-74.143636,PORT RICHMOND AV/SMITH PL,< 1 stop away,157,NA,23:54:22
2017-12-01 00:06:16,1,B12,ALABAMA AV / FULTON ST,40.676746,-73.899944,LEFFRTS GDNS OCEAN AV,40.654848,-73.961754,NYCT_4828,40.657231,-73.939675,ALBANY AV/WINTHROP ST,at stop,17,2017-12-01 00:06:22,23:52:00
2017-12-01 00:06:02,1,Bx9,BROADWAY/W 262 ST,40.910104,-73.89673,BWAY - 225 ST,40.874274,-73.909375,NYCT_4717,40.890804,-73.897702,BROADWAY/W 242 ST,approaching,94,2017-12-01 00:06:22,24:06:00
2017-12-01 00:06:19,0,M101,ASTOR PL/3 AV,40.729567,-73.990052,FT GEORGE 193 ST via 3 AV,40.855666,-73.925259,NYCT_5903,40.749621,-73.97528,3 AV/E 42 ST,< 1 stop away,189,2017-12-01 00:06:49,23:14:00
2017-12-01 00:05:58,0,Bx35,W 179 ST/BROADWAY,40.848951,-73.936872,W FARMS RD SOUTHERN BL,40.825403,-73.891317,NYCT_296,40.844306,-73.923378,EDWARD L GRANT HY/UNIVERSITY AV,approaching,88,2017-12-01 00:06:22,24:06:00
2017-12-01 00:05:54,1,Q32,82 ST/NORTHERN BL,40.755196,-73.885408,MIDTOWN PENN ST,40.749433,-73.991082,NYCT_7402,40.746041,-73.899079,ROOSEVELT AV/64 ST,approaching,115,2017-12-01 00:06:22,24:03:17
2017-12-01 00:05:58,1,Bx12,BAY PLAZA BL/APPLEBEE'S,40.866285,-73.826858,INWOOD BWY-207 ST- PEL PKY via FRDHAM RD,40.867787,-73.920551,NYCT_5723,40.867114,-73.92084,BROADWAY/W 207th ST,approaching,127,2017-12-01 00:06:35,24:07:00
2017-12-01 00:06:02,0,B35,39 ST/1 AV,40.656455,-74.012243,BROWNSVILLE M GASTON BL via CHURCH,40.656346,-73.907191,NYCT_798,40.656208,-74.012044,39 ST/2 AV,< 1 stop away,208,2017-12-01 00:06:26,00:30:49
2017-12-01 00:05:57,1,Bx40,PENNYFIELD AV/FT SCHUYLER ENT,40.809173,-73.801764,RIVER PK TOWER via TREMONT,40.852402,-73.920108,NYCT_4758,40.839638,-73.836852,E TREMONT AV/DUDLEY AV,at stop,10,2017-12-01 00:06:22,24:04:23
2017-12-01 00:05:49,1,M20,BROADWAY/W 63 ST,40.770883,-73.982338,SOUTH FERRY via 7 AV via BAT PK CITY,40.702371,-74.01304,NYCT_5070,40.763292,-73.981654,7 AV/W 53 ST,approaching,68,2017-12-01 00:06:22,24:04:24
2017-12-01 00:06:10,1,M22,GRAND ST/FDR DR,40.713264,-73.977982,BATTERY PK CTY,40.71453,-74.015356,NYCT_3935,40.714009,-74.005993,CHAMBERS ST/BROADWAY,at stop,19,2017-12-01 00:06:22,24:03:45
2017-12-01 00:06:14,0,S48,HOLLAND AV/BENJAMIN PL,40.639326,-74.17119,ST GEORGE FERRY via FOREST,40.643597,-74.073127,NYCT_7048,40.629569,-74.111805,FOREST AV/BEMENT AV,approaching,77,2017-12-01 00:06:28,24:10:24
2017-12-01 00:05:58,0,S59,RICHMOND AV/HYLAN BL,40.53457,-74.154337,PT RICHMOND,40.640298,-74.131254,NYCT_8264,40.625286,-74.144055,PORT RICHMOND AV/SMITH PL,< 1 stop away,200,2017-12-01 00:06:42,23:58:49
2017-12-01 00:06:21,1,B20,PUTNAM AV/FAIRVIEW AV,40.704738,-73.902273,SPRING CREEK STANLEY AV POSTAL FAC,40.664644,-73.863067,NYCT_6585,40.664914,-73.875446,LINDEN BL/ATKINS AV,approaching,74,2017-12-01 00:06:31,24:07:22
2017-12-01 00:05:55,1,Bx36,RANDALL AV/OLMSTEAD AV,40.818675,-73.851558,WASHINGTON HTS GW BRIDGE,40.849034,-73.93731,NYCT_7767,40.850498,-73.906946,E TREMONT AV/MORRIS AV,approaching,60,2017-12-01 00:06:21,24:03:59
2017-12-01 00:06:20,1,B15,JFK AIRPORT/TERMINAL 5 AirTrain STATION,40.647276,-73.779631,BED-STUY WOODHULL HOSP,40.699777,-73.941503,NYCT_7139,40.693291,-73.937103,LEWIS AV/DEKALB AV,at stop,11,2017-12-01 00:06:23,24:08:53
2017-12-01 00:06:18,0,Q4,TEARDROP/LAYOVER,40.701747,-73.802398,CAMBRIA HTS 235 ST via LINDEN,40.690804,-73.727581,NYCT_8434,40.6999,-73.788687,MERRICK BL/107 AV,at stop,23,2017-12-01 00:06:21,24:06:22
2017-12-01 00:06:15,1,B46,WASHINGTON PLZ/LANE3,40.709392,-73.95952,KINGS PLAZA via UTICA,40.60914,-73.921443,NYCT_4965,40.665865,-73.931412,UTICA AV/CARROLL ST,at stop,6,2017-12-01 00:06:22,23:50:10
2017-12-01 00:05:57,1,B6,LIVONIA AV/ASHFORD ST,40.666382,-73.883617,BENSONHURST HARWAY AV,40.592947,-73.993383,NYCT_7147,40.599515,-73.996336,BAY PY/BATH AV,approaching,122,NA,23:59:03
2017-12-01 00:06:02,1,Q84,237 ST/129 AV,40.680134,-73.730246,JAMAICA PRSNS-ARCHR,40.702135,-73.801408,NYCT_8085,40.691395,-73.746663,120 AV/SPRINGFIELD BL,at stop,0,NA,23:59:00
2017-12-01 00:05:58,1,Bx12,BAY PLAZA BL/APPLEBEE'S,40.866285,-73.826858,INWOOD BWY-207 ST- PEL PKY via FRDHAM RD,40.867787,-73.920551,NYCT_4762,40.862781,-73.908536,W FORDHAM RD/CEDAR AV,< 1 stop away,302,2017-12-01 00:07:14,23:48:16
2017-12-01 00:05:56,0,B15,MARCUS GARVEY BL/BROADWAY,40.699722,-73.941516,JFK AIRPORT,40.646909,-73.779564,NYCT_4829,40.691612,-73.939759,MARCUS GARVEY BL/LAFAYETTE AV,approaching,80,2017-12-01 00:06:22,23:34:26
2017-12-01 00:06:00,1,B70,39 ST/1 AV,40.656455,-74.012243,DYKER HEIGHTS VA HOSPITAL via 8 AV,40.609134,-74.023885,NYCT_742,40.609258,-74.023958,CROPSEY AV/VA HOSPITAL,at stop,13,2017-12-01 00:06:22,24:04:00
2017-12-01 00:06:08,1,Q56,JAMAICA AV/170 ST,40.707288,-73.78958,BWAY JCT VN SNDRN AV,40.678609,-73.903663,NYCT_4840,40.701247,-73.824534,JAMAICA AV/124 ST,< 1 stop away,191,2017-12-01 00:06:54,24:02:45
2017-12-01 00:06:10,1,Q44-SBS,BOSTON RD/E 180 ST,40.842561,-73.878332,SELECT BUS JAMAICA via MAIN ST,40.704933,-73.793318,NYCT_6003,40.775524,-73.825963,UNION ST/26 AV,< 1 stop away,160,2017-12-01 00:06:34,24:01:05
2017-12-01 00:06:15,1,M42,E 41 ST/1 AV,40.748046,-73.96989,42 ST PIER CROSSTOWN,40.762549,-74.000971,NYCT_3906,40.759486,-73.995143,W 42 ST/10 AV,approaching,72,NA,23:57:48
2017-12-01 00:06:19,0,M1,4 AV/E 10 ST,40.731342,-73.990292,HARLEM 147 ST via MADISON,40.821108,-73.935894,NYCT_3894,40.771076,-73.965953,MADISON AV/E 72 ST,approaching,141,2017-12-01 00:06:39,24:08:05
2017-12-01 00:06:17,1,M7,W 146 ST/MALCOLM X BL,40.821152,-73.935977,14 ST via COLUMBUS via 7 AV,40.737412,-73.996698,NYCT_6775,40.773064,-73.981969,BROADWAY/W 64 ST,approaching,148,2017-12-01 00:07:10,24:05:00
2017-12-01 00:06:04,1,B37,4 AV/DEAN ST,40.683264,-73.979275,BAY RIDGE SHORE RD via 3 AV,40.611716,-74.035076,NYCT_446,40.619185,-74.032806,3 AV/92 ST,at stop,10,NA,23:56:34
2017-12-01 00:06:17,0,B15,MARCUS GARVEY BL/BROADWAY,40.699722,-73.941516,JFK AIRPORT,40.646909,-73.779564,NYCT_7125,40.663128,-73.920843,E 98 ST/WINTHROP ST,approaching,46,2017-12-01 00:06:35,23:28:23
2017-12-01 00:06:15,1,Q17,138 ST/37 AV,40.761806,-73.829556,JAMAICA ARCHER AV,40.704933,-73.793318,NYCT_4681,40.738607,-73.814907,HORACE HARDING EXP/KISSENA BL,approaching,135,2017-12-01 00:06:53,24:07:00
2017-12-01 00:06:16,1,Bx5,TURNBULL AV/ PUGSLEY AV,40.823059,-73.855739,SOUTHERN BLVD WESTCHESTER AV,40.82458,-73.891803,NYCT_6111,40.821758,-73.876965,STORY AV/BOYNTON AV,at stop,18,2017-12-01 00:06:22,24:05:07
2017-12-01 00:06:04,0,B24,WASHINGTON PL/LANE 6,40.709258,-73.95963,GREENPOINT WEST ST,40.730088,-73.954574,NYCT_3993,40.709114,-73.959434,BROADWAY/MARCY AV,< 1 stop away,201,2017-12-01 00:06:24,24:06:00
2017-12-01 00:06:20,1,X10,E 57 ST/3 AV,40.76043,-73.967671,PT RICHMOND via NARROWS RD via GANNON AV,40.633696,-74.129779,NYCT_2659,40.752554,-73.981562,5 AV/W 40 ST,approaching,35,2017-12-01 00:06:29,23:22:00
2017-12-01 00:06:00,0,B47,AV U/E 54 ST,40.611007,-73.920407,BED-STUY WOODHULL HOSP via RALPH AV,40.699777,-73.941503,NYCT_7235,40.671793,-73.922309,RALPH AV/PROSPECT PL,approaching,145,2017-12-01 00:06:45,24:10:08
2017-12-01 00:06:15,1,Bx40,PENNYFIELD AV/FT SCHUYLER ENT,40.809173,-73.801764,RIVER PK TOWER via TREMONT,40.852402,-73.920108,NYCT_1229,40.845619,-73.891551,E TREMONT AV/ARTHUR AV,< 1 stop away,212,2017-12-01 00:07:54,23:53:41
2017-12-01 00:06:21,1,B82,SEAVIEW AV/PENNSYLVANIA AV,40.64298,-73.878336,CNY ISLND STILLWELL AV via FLATLANDS AV,40.576973,-73.981396,NYCT_6624,40.605214,-73.980491,KINGS HWY/W 7 ST,at stop,5,2017-12-01 00:06:22,23:37:00
2017-12-01 00:06:14,1,B8,ROCKAWAY AV/HEGEMAN AV,40.655904,-73.907318,BAY RIDGE 95 ST STA,40.616262,-74.031131,NYCT_760,40.606391,-74.003569,18 AV/BENSON AV,approaching,147,2017-12-01 00:06:42,24:02:55
2017-12-01 00:06:06,1,M101,ST NICHOLAS AV/W 192 ST,40.856288,-73.928768,EAST VILLAGE 6 ST via LEX AV,40.729113,-73.990259,NYCT_5885,40.76175,-73.968533,LEXINGTON AV/E 56 ST,< 1 stop away,209,2017-12-01 00:07:02,24:05:53
2017-12-01 00:06:07,0,B35,39 ST/1 AV,40.656455,-74.012243,BROWNSVILLE M GASTON BL via CHURCH,40.656346,-73.907191,NYCT_451,40.652465,-73.922191,CHURCH AV/REMSEN AV,< 1 stop away,236,2017-12-01 00:06:58,24:03:54
2017-12-01 00:06:21,0,M86-SBS,W 86 ST/BROADWAY,40.788358,-73.97679,SELECT BUS YORKVILLE 1AV-92 ST CROSSTOWN,40.780248,-73.946809,NYCT_5825,40.779401,-73.955359,E 86 ST/LEXINGTON  AV,approaching,47,2017-12-01 00:06:35,23:59:05
2017-12-01 00:06:14,1,M23-SBS,AV C/E 20 ST,40.732795,-73.974542,SELECT BUS CHELSEA PIERS 12AV CROSSTOWN,40.748843,-74.008128,NYCT_5292,40.734982,-73.979807,1 AV/E 20 ST (M23 non-stop),approaching,54,2017-12-01 00:06:52,24:04:38
2017-12-01 00:05:57,1,Bx33,WALNUT AV/E 133 ST,40.799752,-73.911466,HARLEM ST NICHLAS,40.817071,-73.947748,NYCT_7791,40.808196,-73.920737,E 138 ST/WILLIS AV,< 1 stop away,245,2017-12-01 00:06:45,24:05:50
2017-12-01 00:05:52,0,B31,GERRITSEN AV/GERRITSEN BEACH,40.587101,-73.918503,MIDWOOD KINGS HWY STA,40.608433,-73.957098,NYCT_4608,40.595452,-73.928036,GERRITSEN AV/AV X,< 1 stop away,184,2017-12-01 00:06:22,24:04:51
2017-12-01 00:06:19,0,M42,12 AV/42 ST,40.762148,-74.00144,UN - 1 AV CROSSTOWN,40.748005,-73.969803,NYCT_6744,40.74773,-73.969302,E 41 ST/1 AV,approaching,51,2017-12-01 00:06:31,23:44:00
2017-12-01 00:05:57,1,B15,JFK AIRPORT/TERMINAL 5 AirTrain STATION,40.647276,-73.779631,BED-STUY WOODHULL HOSP,40.699777,-73.941503,NYCT_4836,40.675164,-73.932852,BERGEN ST/SCHENECTADY AV,at stop,20,2017-12-01 00:06:22,23:51:56
2017-12-01 00:06:03,1,M23-SBS,AV C/E 20 ST,40.732795,-73.974542,SELECT BUS CHELSEA PIERS 12AV CROSSTOWN,40.748843,-74.008128,NYCT_5928,40.746573,-74.001528,W 23 ST/9 AV,at stop,16,2017-12-01 00:06:22,24:02:16
2017-12-01 00:06:10,1,B62,JACKSON AV/QUEENS PZ S,40.748638,-73.938447,DOWNTOWN BKLYN FULTON MALL,40.690405,-73.989474,NYCT_4431,40.695937,-73.96572,PARK AV/WASHINGTON AV,< 1 stop away,180,2017-12-01 00:06:47,24:07:10
2017-12-01 00:05:56,0,Bx3,BROADWAY/179 ST,40.849327,-73.936507,RIVERDALE BWAY - 238 ST,40.885085,-73.900434,NYCT_4339,40.849527,-73.936414,W 181 ST/WADSWORTH AV,approaching,149,2017-12-01 00:06:22,24:05:47
2017-12-01 00:05:50,1,X1,CENTRAL PARK S/6 AV,40.766314,-73.977491,ELTNGVLE TRANST CTR via HYLAN BL RICH AV,40.560836,-74.17112,NYCT_2688,40.577417,-74.102816,HYLAN BL/LINCOLN AV,< 1 stop away,166,2017-12-01 00:06:22,24:09:00
2017-12-01 00:06:06,1,B8,ROCKAWAY AV/HEGEMAN AV,40.655904,-73.907318,BAY RIDGE 95 ST STA,40.616262,-74.031131,NYCT_461,40.61639,-74.03096,4 AV/95 ST,at stop,17,2017-12-01 00:06:22,23:58:00
2017-12-01 00:06:10,0,B46,KINGS PLAZA,40.609564,-73.921817,BRIDGE PLZ via UTICA,40.709404,-73.959565,NYCT_5001,40.696685,-73.934711,BROADWAY/JEFFERSON ST,approaching,118,2017-12-01 00:06:45,24:05:56
2017-12-01 00:06:14,0,M14A,8 AV/BLEECKER ST,40.737379,-74.004929,LOWER E. SIDE GRAND-FDR CROSSTOWN,40.713355,-73.978278,NYCT_5279,40.730713,-73.98107,AV A/E 14 ST,approaching,90,2017-12-01 00:06:44,24:06:00
2017-12-01 00:05:57,0,M Shuttle Bus,BROADWAY/MYRTLE AV,40.69726,-73.935893,MYRTLE- WYCKOFF AVS,40.699793,-73.910688,NYCT_6087,40.697299,-73.935811,MYRTLE AV/CEDAR ST,0.5 miles away,808,2017-12-01 00:08:45,00:19:30
2017-12-01 00:05:57,1,Q28,23 AV/BELL BL,40.782292,-73.777063,FLUSHING  MAIN ST STA,40.760936,-73.827284,NYCT_4179,40.77024,-73.787508,32 AV/201 ST,approaching,117,2017-12-01 00:06:22,24:09:22
2017-12-01 00:06:21,0,M102,ASTOR PL/3 AV,40.729567,-73.990052,HARLEM 147 ST via 3 AV,40.821199,-73.936118,NYCT_6081,40.745406,-73.978354,3 AV/E 37 ST,< 1 stop away,332,2017-12-01 00:07:47,23:51:39
2017-12-01 00:06:21,0,M3,4 AV/E 10 ST,40.731342,-73.990292,FT GEORGE 193 ST via MADSON via ST. NICH,40.858092,-73.925535,NYCT_6728,40.858225,-73.925895,FT GEORGE AV/66 FT GEORGE AV,approaching,34,2017-12-01 00:06:27,24:01:00
2017-12-01 00:06:02,1,Q13,TOTTEN AV/CROSS ISLAND PY,40.791429,-73.781062,FLUSHING MAIN ST STA,40.760936,-73.827284,NYCT_7396,40.765115,-73.771789,BELL BL/39 AV,at stop,13,2017-12-01 00:06:22,24:04:53
2017-12-01 00:06:05,1,S74,ST GEORGE FERRY/S74 & S84,40.643185,-74.073812,BRICKTOWN MALL,40.530061,-74.226654,NYCT_8133,40.560876,-74.169753,ARTHUR KILL RD/LADD AV,< 1 stop away,266,2017-12-01 00:06:53,24:02:05
2017-12-01 00:06:09,0,B44,EMMONS AV/NOSTRAND AV,40.584026,-73.93844,WILLAMSBURG BRIDGE PLZ via NOSTRAND,40.709315,-73.959588,NYCT_5047,40.65796,-73.947426,NEW YORK AV/FENIMORE ST,approaching,135,2017-12-01 00:06:35,23:39:10
2017-12-01 00:05:58,0,Q84,ARCHER AV/153 ST,40.702094,-73.801733,LAURELTON 238 ST via 120 AV,40.679815,-73.72993,NYCT_5166,40.701519,-73.803853,ARCHER AV/TEARDROP CANOPY,< 1 stop away,176,2017-12-01 00:07:51,24:01:00
2017-12-01 00:05:56,0,B41,FLATBUSH AV/KINGS PLAZA,40.609251,-73.92154,DNTWN BKLYN CADMAN PLZ via FLATBSH,40.695406,-73.990781,NYCT_4623,40.694857,-73.990693,TILLARY ST/CADMAN PZ W,approaching,61,2017-12-01 00:06:22,24:05:00
2017-12-01 00:05:53,1,M55,W 44 ST/6 AV,40.755891,-73.982784,SOUTH FERRY,40.702371,-74.01304,NYCT_6729,40.749133,-73.984053,5 AV/W 33 ST,< 1 stop away,211,2017-12-01 00:06:56,23:54:48
2017-12-01 00:06:13,1,M96,E 97 ST/1 AV,40.784544,-73.945478,WEST SIDE WEST END AV CROSSTOWN,40.795103,-73.97309,NYCT_6420,40.786022,-73.951302,E 96 ST/LEXINGTON AV,at stop,0,2017-12-01 00:06:22,24:04:00
2017-12-01 00:06:07,1,B41,CADMAN PLAZA WEST/JOHNSON ST,40.695535,-73.990829,BERGEN BCH VETERANS AV via FLATBSH,40.620053,-73.908203,NYCT_4626,40.683491,-73.977039,FLATBUSH AV/DEAN ST,< 1 stop away,168,2017-12-01 00:07:02,24:03:51
2017-12-01 00:06:00,0,M15,SOUTH ST/WHITEHALL ST,40.701536,-74.012485,EAST HARLEM 125 ST via 1 AV,40.80315,-73.932264,NYCT_6045,40.762402,-73.959941,1 AV/E 64 ST,approaching,75,2017-12-01 00:06:22,23:58:06
2017-12-01 00:06:18,1,X28,E 57 ST/MADISON AV,40.762563,-73.972796,BENSONHURST CROPSEY AV via BROADWAY,40.58335,-73.986611,NYCT_2409,40.704708,-74.014118,BATTERY PL/WASHINGTON ST,< 1 stop away,179,2017-12-01 00:07:05,23:58:00
2017-12-01 00:05:36,1,M11,RIVERBANK ST PK/CULTURAL CTR,40.8267,-73.955473,WEST VILL ABINGDON SQ via 9 AV,40.737071,-74.005867,NYCT_3864,40.744876,-74.002506,9 AV/W 20 ST,approaching,62,2017-12-01 00:06:22,23:49:56
2017-12-01 00:06:01,1,B6,LIVONIA AV/ASHFORD ST,40.666382,-73.883617,BENSONHURST HARWAY AV,40.592947,-73.993383,NYCT_4887,40.632648,-73.931549,AV H/SCHENECTADY AV,at stop,15,2017-12-01 00:06:22,24:09:57
2017-12-01 00:06:17,1,Q58,41 RD/MAIN ST,40.757391,-73.82929,RIDGEWOOD TERM,40.699697,-73.910768,NYCT_4447,40.712075,-73.900274,FRESH POND RD/MENAHAN ST,approaching,130,2017-12-01 00:06:50,23:56:41
2017-12-01 00:06:14,1,Bx41,WHITE PLAINS RD/E GUN HILL RD,40.877853,-73.866668,THE HUB 150 ST via WEBSTER,40.816888,-73.917485,NYCT_5760,40.819927,-73.916018,MELROSE AV/E 152 ST,< 1 stop away,237,2017-12-01 00:07:29,23:52:05
2017-12-01 00:06:01,1,Q54,JAMAICA AV/170 ST,40.707288,-73.78958,WILLAMSBURG BRIDGE PLZ,40.709478,-73.959532,NYCT_7292,40.701787,-73.808508,JAMAICA AV/SUTPHIN BL,at stop,25,2017-12-01 00:06:22,24:05:00
2017-12-01 00:06:15,0,Q1,165 ST/TERMINAL,40.707812,-73.795415,QUEENS VILL JAMAICA AV,40.717818,-73.735753,NYCT_6894,40.721921,-73.736653,SPRINGFIELD BL/94 AV,approaching,116,2017-12-01 00:06:40,24:03:54
2017-12-01 00:06:05,1,Q59,QUEENS BL/62 DR,40.73133,-73.864944,WILLIAMSBURG BRIDGE PLZ via GRAND,40.709341,-73.960413,NYCT_7244,40.735826,-73.876429,GRAND AV/QUEENS BL,< 1 stop away,210,2017-12-01 00:07:07,23:58:00
2017-12-01 00:05:51,0,M101,ASTOR PL/3 AV,40.729567,-73.990052,FT GEORGE 193 ST via 3 AV,40.855666,-73.925259,NYCT_6047,40.729727,-73.989769,3 AV/E 9 ST,approaching,86,NA,24:15:29
2017-12-01 00:06:04,0,B17,SEAVIEW AV/E 108 ST,40.639112,-73.881742,CROWN HTS EASTERN PKY,40.668556,-73.931625,NYCT_6806,40.641283,-73.907144,REMSEN AV/GLENWOOD RD,approaching,105,2017-12-01 00:06:26,24:10:00
2017-12-01 00:06:05,1,S48,ST GEORGE FERRY/S48 & S98,40.643473,-74.073556,ARLINGTON HOLLAND AV via FOREST,40.637625,-74.171153,NYCT_7083,40.63797,-74.077521,VICTORY BL/MONTGOMERY AV,at stop,17,2017-12-01 00:06:22,24:03:30
2017-12-01 00:06:13,1,B65,ST JOHNS PL/RALPH AV,40.670227,-73.923231,DNTWN BKLYN FULTON MALL,40.690511,-73.987725,NYCT_6604,40.681421,-73.976857,BERGEN ST/5 AV,at stop,4,2017-12-01 00:06:22,24:05:00
2017-12-01 00:06:04,1,M3,FT GEORGE AV/66 FORT GEORGE AV,40.85833,-73.925388,125 ST ST. NICHOLAS,40.810492,-73.952926,NYCT_4405,40.856949,-73.927972,ST NICHOLAS AV/W 192 ST,approaching,100,2017-12-01 00:06:39,24:01:46
2017-12-01 00:06:18,0,Bx30,E 206 ST/ROCHAMBEAU AV,40.874892,-73.880945,CO-OP CITY EARHART LA,40.860826,-73.822669,NYCT_8331,40.869847,-73.826219,BARTOW AV/CO-OP CITY BL,approaching,98,NA,23:54:41
2017-12-01 00:05:54,1,Bx12,BAY PLAZA BL/APPLEBEE'S,40.866285,-73.826858,INWOOD BWY-207 ST- PEL PKY via FRDHAM RD,40.867787,-73.920551,NYCT_4795,40.861829,-73.892614,E FORDHAM RD/VALENTINE AV,< 1 stop away,251,2017-12-01 00:07:06,24:10:00
2017-12-01 00:06:14,1,B11,FLATBUSH AV/E 31 ST,40.631992,-73.946701,SUNSET PARK 1 AV - 58 ST,40.645616,-74.023524,NYCT_785,40.645619,-74.009661,49 ST/5 AV,approaching,44,2017-12-01 00:06:24,24:02:00
2017-12-01 00:06:07,1,Q24,ARCHER AV/MERRICK BL,40.704527,-73.792351,LFYTT ST PTCHN AV via ATLNTC AV via BDWY,40.692386,-73.927876,NYCT_7124,40.704798,-73.791819,JAMAICA AV/165 ST,< 1 stop away,406,2017-12-01 00:07:34,23:51:52
2017-12-01 00:06:13,0,Bx42,SEDGWICK AV/CEDAR AV,40.852352,-73.920231,THROGS NECK HARDING AV via TREMONT,40.813007,-73.827225,NYCT_4788,40.844202,-73.888681,E TREMONT AV/PROSPECT AV,at stop,0,NA,24:06:32
2017-12-01 00:06:07,1,M103,LEXINGTON AV/E 124 ST,40.803886,-73.937851,CITY HALL via LEX AV,40.711746,-74.00738,NYCT_5881,40.786633,-73.950367,LEXINGTON AV/E 96 ST,< 1 stop away,185,2017-12-01 00:06:44,24:01:00
2017-12-01 00:06:05,0,Q5,TEARDROP/LAYOVER,40.701747,-73.802398,ROSEDALE LIRR STA via MERRICK,40.666011,-73.735937,NYCT_8455,40.675467,-73.73871,MERRICK BL/231 ST,approaching,39,2017-12-01 00:06:22,24:01:29
2017-12-01 00:06:18,1,B35,HEGEMAN AV/CHESTER AV,40.656215,-73.908149,SUNSET PARK 1 AV via CHURCH,40.656499,-74.012109,NYCT_747,40.651217,-74.003828,39 ST/4 AV,< 1 stop away,293,2017-12-01 00:07:20,24:08:17
2017-12-01 00:06:00,1,B14,POSTAL FACILITY RD/IN FRONT OF FACILITY,40.664654,-73.862894,CROWN HTS UTICA AV,40.668552,-73.931509,NYCT_7117,40.666983,-73.902295,JUNIUS ST/BLAKE AV,approaching,66,2017-12-01 00:06:22,24:02:15
2017-12-01 00:06:02,0,M34A-SBS,9 AV/W 42 ST,40.758617,-73.99264,SELECT BUS WATERSIDE VIA 34 ST VIA 2 AV,40.737552,-73.973846,NYCT_5978,40.736902,-73.974345,WATERSIDE/WATERSIDE,approaching,83,2017-12-01 00:06:29,24:22:00
2017-12-01 00:06:16,0,Q58,PALMETTO ST/MYRTLE AV,40.700178,-73.910254,FLUSHING MAIN ST,40.757344,-73.829362,NYCT_4047,40.701623,-73.906523,MADISON ST/SENECA AV,approaching,77,2017-12-01 00:06:37,24:07:22
2017-12-01 00:06:15,0,M55,STATE ST/WHITEHALL ST,40.70242,-74.013049,44 ST 6 AV,40.755986,-73.982997,NYCT_3815,40.703151,-74.014431,STATE ST/BRIDGE ST,approaching,119,2017-12-01 00:06:29,24:10:53
2017-12-01 00:06:19,0,M14D,11 AV/W 17 ST,40.744841,-74.008147,LOWER E. SIDE DELANCY-FDR CROSSTOWN,40.716391,-73.980131,NYCT_5593,40.739621,-74.002212,W 14 ST/8 AV,at stop,8,2017-12-01 00:06:22,23:59:54
2017-12-01 00:06:06,0,M102,ASTOR PL/3 AV,40.729567,-73.990052,HARLEM 147 ST via 3 AV,40.821199,-73.936118,NYCT_6073,40.73756,-73.984072,3 AV/E 23 ST,< 1 stop away,215,2017-12-01 00:07:03,24:05:00
2017-12-01 00:05:57,0,Q30,ARCHER AV /SUTPHIN BL,40.700488,-73.807887,LITTLE NECK  L NECK PKY,40.764295,-73.725916,NYCT_8070,40.764773,-73.725228,NASSAU BL/LITTLE NECK PY,approaching,78,2017-12-01 00:06:22,24:02:00
2017-12-01 00:06:18,1,S42,ST GEORGE FERRY/S42 & S52,40.643539,-74.073325,CLYDE PL ARNOLD ST,40.639114,-74.090187,NYCT_8206,40.63954,-74.076354,CENTRAL AV/HYATT ST,< 1 stop away,268,2017-12-01 00:06:56,24:04:05
2017-12-01 00:05:57,1,B20,PUTNAM AV/FAIRVIEW AV,40.704738,-73.902273,SPRING CREEK STANLEY AV POSTAL FAC,40.664644,-73.863067,NYCT_6527,40.697985,-73.89928,SUMMERFIELD ST/SENECA AV,approaching,48,2017-12-01 00:06:22,24:02:03
2017-12-01 00:06:17,0,Q44-SBS,MERRICK BL/ARCHER AV,40.704907,-73.793306,SELECT BUS BRONX ZOO via MAIN ST,40.842458,-73.877118,NYCT_6006,40.703725,-73.794488,ARCHER AV/153 ST,< 1 stop away,689,NA,24:27:43
2017-12-01 00:05:57,0,Bx6,RIVERSIDE DR W/157-10 RIVERSIDE DR W,40.836311,-73.948435,HUNTS POINT,40.810009,-73.876437,NYCT_7776,40.824137,-73.908927,E 163 ST/3 AV,at stop,3,2017-12-01 00:06:22,23:30:11
2017-12-01 00:06:07,0,B44,EMMONS AV/NOSTRAND AV,40.584026,-73.93844,WILLAMSBURG BRIDGE PLZ via NOSTRAND,40.709315,-73.959588,NYCT_4237,40.615311,-73.944674,NOSTRAND AV/KINGS HY,approaching,64,2017-12-01 00:06:22,24:02:46
2017-12-01 00:05:52,1,Bx34,VAN CORTLANDT PK E/E 242 ST,40.902659,-73.868376,FORDHAM CTR - VALENTINE AV,40.862502,-73.895797,NYCT_4068,40.896012,-73.873406,E 233 ST/NAPIER AV,< 1 stop away,155,2017-12-01 00:06:22,24:03:31
2017-12-01 00:05:35,1,S78,ST GEORGE FERRY/S78,40.643655,-74.07347,BRICKTOWN MALL,40.530061,-74.226654,NYCT_8132,40.517273,-74.240668,ARTHUR KILL RD/NASSAU PL,< 1 stop away,200,2017-12-01 00:06:22,23:58:15
2017-12-01 00:06:16,1,B4,KNAPP ST/HARKNESS AV,40.58644,-73.93159,BAY RIDGE NARROWS AV,40.631716,-74.036406,NYCT_757,40.631739,-74.036506,NARROWS AV/77 ST,at stop,13,NA,NA
2017-12-01 00:06:05,0,B65,SMITH ST/FULTON ST,40.691209,-73.987376,CROWN HTS RALPH AV,40.670198,-73.92255,NYCT_7138,40.687769,-73.986993,ATLANTIC AV/HOYT ST,at stop,30,2017-12-01 00:06:22,24:04:52
2017-12-01 00:06:21,0,M14A,8 AV/BLEECKER ST,40.737379,-74.004929,LOWER E. SIDE GRAND-FDR CROSSTOWN,40.713355,-73.978278,NYCT_5304,40.715246,-73.984384,GRAND ST/EAST BROADWAY,< 1 stop away,180,2017-12-01 00:07:05,23:58:00
2017-12-01 00:06:09,0,B20,POSTAL FACILITY RD/IN FRONT OF FACILITY,40.664654,-73.862894,RIDGEWOOD FOREST AV,40.704864,-73.902143,NYCT_6559,40.666943,-73.871787,LINDEN BL/LOGAN ST,approaching,134,2017-12-01 00:06:50,24:04:46
2017-12-01 00:06:00,0,Q15A,ROOSEVELT AV/LAYOVER,40.758997,-73.831756,BEECHHURST POWELLS COVE BL via 10AV,40.793805,-73.797415,NYCT_3998,40.781176,-73.814216,150 ST/20 AV,approaching,45,2017-12-01 00:06:22,24:04:00
2017-12-01 00:06:08,0,M101,ASTOR PL/3 AV,40.729567,-73.990052,FT GEORGE 193 ST via 3 AV,40.855666,-73.925259,NYCT_6061,40.84359,-73.934197,AMSTERDAM AV/W 176 ST,< 1 stop away,201,2017-12-01 00:06:52,23:35:51
2017-12-01 00:06:05,0,Q3,JFK AIRPORT/TERMINAL 5 AirTrain STATION,40.647276,-73.779631,JAMAICA 179 ST STA 165 ST TERM,40.707614,-73.795538,NYCT_8441,40.683504,-73.760443,FARMERS BL/122 AV,at stop,22,2017-12-01 00:06:22,24:03:10
2017-12-01 00:05:52,0,B44,KNAPP ST/SHORE PKY,40.585035,-73.931329,WILLAMSBURG BRIDGE PLZ via NOSTRAND,40.709315,-73.959588,NYCT_5138,40.660247,-73.947671,NEW YORK AV/EAST NEW YORK AV,< 1 stop away,202,2017-12-01 00:06:38,23:15:41
2017-12-01 00:06:16,1,Q85,243 ST/147 AV,40.657737,-73.741214,JAMAICA PRSNS - ARCHR,40.701681,-73.802477,NYCT_8429,40.703905,-73.791021,168 ST/DOUGLAS AV,at stop,3,NA,23:51:45
2017-12-01 00:06:20,0,Bx19,RIVERBANK ST PK/CULTURAL CTR,40.8267,-73.955473,BRONX PK via 149 ST via SOUTHRN,40.861203,-73.880674,NYCT_5961,40.821838,-73.939552,W 145 ST/ADAM C POWELL BL,at stop,25,2017-12-01 00:06:28,24:05:00
2017-12-01 00:05:59,1,M2,168 ST/AUDUBON AV,40.840644,-73.938543,EAST VILLAGE 8 ST via 5 AV,40.73028,-73.990532,NYCT_6689,40.807891,-73.949153,ADAM C POWELL BL/W 122 ST,approaching,141,2017-12-01 00:06:33,23:51:36
2017-12-01 00:05:51,1,S74,ST GEORGE FERRY/S74 & S84,40.643185,-74.073812,BRICKTOWN MALL,40.530061,-74.226654,NYCT_8167,40.633491,-74.075207,BAY ST/GRANT ST,approaching,73,2017-12-01 00:06:22,24:02:56
2017-12-01 00:04:07,0,M5,6 AV/W 31 ST,40.748042,-73.988957,WASHINGTON HEIGHTS  GW BRIDGE,40.848264,-73.937455,NYCT_6753,40.765046,-73.976664,CENTRAL PK S/6 AV,< 1 stop away,160,NA,23:33:59
2017-12-01 00:05:51,0,Bx19,RIVERBANK ST PK/CULTURAL CTR,40.8267,-73.955473,BRONX PK via 149 ST via SOUTHRN,40.861203,-73.880674,NYCT_5964,40.84173,-73.885855,SOUTHERN BL/E TREMONT AV,approaching,150,2017-12-01 00:06:28,24:06:00
2017-12-01 00:06:09,1,Bx31,VAN CORTLANDT PK E/E 242 ST,40.902659,-73.868376,WESTCHESTER SQ,40.841077,-73.842848,NYCT_710,40.865348,-73.84335,EASTCHESTER RD/ALLERTON AV,approaching,57,2017-12-01 00:06:22,23:55:09
2017-12-01 00:05:55,0,Bx19,RIVERBANK ST PK/CULTURAL CTR,40.8267,-73.955473,BRONX PK via 149 ST via SOUTHRN,40.861203,-73.880674,NYCT_5872,40.81826,-73.894207,SOUTHERN BL/TIFFANY ST,approaching,47,2017-12-01 00:06:22,24:04:42
2017-12-01 00:05:51,1,B63,BROOKLYN BRIDGE PARK RD/JORALEMON ST,40.692232,-74.000448,BAY RIDGE SHORE RD via 5 AV,40.612311,-74.035981,NYCT_417,40.640245,-74.015374,5 AV/60 ST,approaching,143,2017-12-01 00:06:28,24:04:31
2017-12-01 00:06:04,0,Bx21,LINCOLN AV/E 138 ST,40.810954,-73.927139,WESTCHESTER SQ,40.839816,-73.843143,NYCT_7726,40.850545,-73.850831,MORRIS PK AV/SEMINOLE AV,< 1 stop away,218,2017-12-01 00:06:52,24:06:51
2017-12-01 00:06:10,1,Q32,82 ST/NORTHERN BL,40.755196,-73.885408,MIDTOWN PENN ST,40.749433,-73.991082,NYCT_4478,40.756862,-73.978417,5 AV/W 47 ST,approaching,94,2017-12-01 00:06:36,23:52:27
2017-12-01 00:06:11,1,M57,E 60 ST/YORK AV,40.75931,-73.959464,WEST SIDE BWAY - 72 ST XTOWN,40.778765,-73.982253,NYCT_3912,40.759353,-73.959432,E 60 ST/YORK AV,at stop,0,NA,24:00:00
2017-12-01 00:05:50,1,B64,SHORE RD/MACKAY PL,40.637203,-74.036023,CONEY ISLAND STILLWELL AV,40.577199,-73.981665,NYCT_5080,40.637235,-74.036112,SHORE RD/MACKAY PL,at stop,0,NA,24:10:00
2017-12-01 00:06:02,0,Q88,92 ST/59 AV,40.73427,-73.869299,QUEENS VILL JAMAICA AV,40.717922,-73.736383,NYCT_4670,40.736031,-73.784498,188 ST/186 LA #2,< 1 stop away,241,2017-12-01 00:06:35,24:05:43
2017-12-01 00:05:56,1,Bx36,RANDALL AV/OLMSTEAD AV,40.818675,-73.851558,WASHINGTON HTS GW BRIDGE,40.849034,-73.93731,NYCT_312,40.822973,-73.858483,WHITE PLAINS RD/STORY AV,< 1 stop away,178,2017-12-01 00:06:51,00:05:00
2017-12-01 00:06:15,0,M72,WEST 66 ST/FREEDOM PL,40.7765,-73.988634,EAST SIDE YORK AV CROSSTOWN,40.766958,-73.954141,NYCT_5225,40.775642,-73.976378,CENTRAL PK W/W 70 ST,approaching,110,2017-12-01 00:06:49,24:06:38
2017-12-01 00:06:16,1,B15,JFK AIRPORT/TERMINAL 5 AirTrain STATION,40.647276,-73.779631,BED-STUY WOODHULL HOSP,40.699777,-73.941503,NYCT_5017,40.698832,-73.938541,BROADWAY/PARK ST,approaching,72,2017-12-01 00:06:47,23:57:53
2017-12-01 00:05:59,1,B6,LIVONIA AV/ASHFORD ST,40.666382,-73.883617,BENSONHURST HARWAY AV,40.592947,-73.993383,NYCT_7188,40.595898,-74.000154,SHORE PY/BAY PY,approaching,76,2017-12-01 00:06:22,24:07:39
2017-12-01 00:06:11,0,Q44-SBS,MERRICK BL/ARCHER AV,40.704907,-73.793306,SELECT BUS BRONX ZOO via MAIN ST,40.842458,-73.877118,NYCT_5988,40.842218,-73.876573,E 180 ST/DEVOE AV,approaching,51,2017-12-01 00:06:22,24:05:00
2017-12-01 00:06:03,0,Bx9,E TREMONT AV/E 177 ST,40.839994,-73.879938,BWAY - 225 ST,40.874486,-73.909403,NYCT_1212,40.866748,-73.895739,E KINGSBRIDGE RD/MORRIS AV,approaching,43,2017-12-01 00:06:22,24:04:24
2017-12-01 00:06:04,1,Q58,41 RD/MAIN ST,40.757391,-73.82929,RIDGEWOOD TERM,40.699697,-73.910768,NYCT_4063,40.741864,-73.842164,HORACE HARDING EXP/WALDRON ST,0.5 miles away,810,2017-12-01 00:07:22,24:07:34
2017-12-01 00:06:17,0,Bx19,RIVERBANK ST PK/CULTURAL CTR,40.8267,-73.955473,BRONX PK via 149 ST via SOUTHRN,40.861203,-73.880674,NYCT_5955,40.8162,-73.918122,E 149 ST/BERGEN AV,approaching,111,2017-12-01 00:07:07,24:05:00
2017-12-01 00:06:16,1,Q5,FRANCIS LEWIS BL/SUNRISE HY,40.666044,-73.735966,JAMAICA PRSNS-ARCHR via MERRICK,40.701681,-73.802477,NYCT_8114,40.674452,-73.735815,MERRICK BL/233 ST,approaching,89,2017-12-01 00:06:37,24:03:00
2017-12-01 00:05:51,1,Bx31,VAN CORTLANDT PK E/E 242 ST,40.902659,-73.868376,WESTCHESTER SQ,40.841077,-73.842848,NYCT_7805,40.889876,-73.846329,LACONIA AV/E 232 ST,< 1 stop away,152,2017-12-01 00:06:49,24:01:20
2017-12-01 00:06:02,0,Bx28,VALENTINE AV/E 192 ST,40.864076,-73.894613,CO-OP CITY EARHART LA via GUNHILL,40.860826,-73.822669,NYCT_8338,40.860849,-73.822846,ERSKINE PL/EARHART LA,at stop,12,2017-12-01 00:06:22,23:58:00
2017-12-01 00:06:12,0,B9,SHORE RD/71 ST,40.636852,-74.036257,KINGS PLAZA via 60 ST via AVENUE M,40.608425,-73.920617,NYCT_487,40.611399,-73.924489,FLATBUSH AV/AV T,at stop,13,2017-12-01 00:06:22,23:53:06
2017-12-01 00:05:54,1,B82,SEAVIEW AV/PENNSYLVANIA AV,40.64298,-73.878336,CNY ISLND STILLWELL AV via FLATLANDS AV,40.576973,-73.981396,NYCT_4810,40.60454,-73.975352,KINGS HY/W 2 ST,at stop,16,2017-12-01 00:06:22,23:53:41
2017-12-01 00:06:12,1,Q59,QUEENS BL/62 DR,40.73133,-73.864944,WILLIAMSBURG BRIDGE PLZ via GRAND,40.709341,-73.960413,NYCT_9674,40.713459,-73.958244,GRAND ST/ROEBLING ST,approaching,53,NA,23:56:26
2017-12-01 00:05:57,1,B82,SEAVIEW AV/PENNSYLVANIA AV,40.64298,-73.878336,CNY ISLND STILLWELL AV via FLATLANDS AV,40.576973,-73.981396,NYCT_4848,40.652162,-73.885737,FLATLANDS AV/GEORGIA AV,< 1 stop away,289,2017-12-01 00:06:50,00:05:22
2017-12-01 00:06:09,0,B57,BEARD ST/OTSEGO ST,40.672313,-74.011308,MASPETH FRESH POND RD,40.721267,-73.903751,NYCT_4425,40.7056,-73.926461,FLUSHING AV/MELROSE ST,at stop,0,2017-12-01 00:06:22,24:09:36
2017-12-01 00:05:57,0,S46,WEST SHORE PLAZA/CHELSEA ST,40.602038,-74.190696,ST GEORGE FERRY via CASTLTN,40.643585,-74.07261,NYCT_7026,40.633847,-74.126091,CASTLETON AV/CLOVE RD,approaching,58,2017-12-01 00:06:22,24:07:14
2017-12-01 00:05:52,1,Bx21,WESTCHESTER AV/LANE  AV,40.83974,-73.843199,MOTT HAVEN 136 ST,40.809653,-73.928362,NYCT_7686,40.846448,-73.860215,MORRIS PK AV/DELANCEY PL,at stop,0,2017-12-01 00:06:22,23:51:13
2017-12-01 00:05:54,1,Q46,L.I.J.MEDICAL RDWY/271 ST,40.755066,-73.706419,KEW GARDENS QUEENS BL via UNION,40.714733,-73.831235,NYCT_8048,40.71825,-73.815267,UNION TP/MAIN ST,< 1 stop away,221,2017-12-01 00:06:52,24:07:00
2017-12-01 00:06:13,1,Bx32,VA HOSPITAL/VA HOSPITAL,40.867352,-73.905628,MOTT HAVEN 136 ST,40.809653,-73.928362,NYCT_7731,40.867011,-73.905968,W KINGSBRIDGE RD/UNIVERSITY AV,< 1 stop away,492,2017-12-01 00:07:56,24:07:04
2017-12-01 00:06:11,0,B26,CADMAN PZ W/TILLARY ST,40.695999,-73.990945,RIDGEWOOD TERM via HALSEY,40.699291,-73.910755,NYCT_3972,40.682775,-73.963513,FULTON ST/ST JAMES PL,at stop,20,2017-12-01 00:06:22,24:04:43
2017-12-01 00:05:55,1,B68,PROSPECT PK SW/BARTEL PRITCHARD SQ,40.660699,-73.979409,CONEY ISLAND STILLWELL AV via C I AV,40.576991,-73.981426,NYCT_482,40.648482,-73.971462,CONEY ISLAND AV/CATON AV,approaching,59,2017-12-01 00:06:22,24:05:19
2017-12-01 00:05:51,1,Bx27,MORRISON AV/WESTCHESTER AV,40.829097,-73.87457,CLASON PT,40.807544,-73.852337,NYCT_697,40.821247,-73.865977,SOUNDVIEW AV/LAFAYETTE AV,at stop,8,NA,00:05:39
2017-12-01 00:06:06,1,Q17,138 ST/37 AV,40.761806,-73.829556,JAMAICA ARCHER AV,40.704933,-73.793318,NYCT_8438,40.712512,-73.784383,HILLSIDE AV/EDGERTON BL,approaching,122,NA,23:58:34
2017-12-01 00:06:05,1,Q56,JAMAICA AV/170 ST,40.707288,-73.78958,BWAY JCT VN SNDRN AV,40.678609,-73.903663,NYCT_7098,40.690567,-73.870683,JAMAICA AV/LINCOLN AV,approaching,56,2017-12-01 00:06:22,23:47:05
2017-12-01 00:06:09,0,B62,BOERUM PL/SCHERMERHORN ST,40.690567,-73.989366,LI CITY QUEENS PLAZA,40.749703,-73.938966,NYCT_7251,40.690681,-73.989405,JAY ST/FULTON ST,< 1 stop away,313,2017-12-01 00:07:03,24:11:06
2017-12-01 00:06:04,0,M66,W 66 ST/WEST END AV,40.776008,-73.98702,EAST SIDE YORK AV CROSSTOWN,40.764252,-73.95575,NYCT_5218,40.775269,-73.987469,W 65 ST/WEST END AV,at stop,22,NA,24:05:26
2017-12-01 00:06:12,1,B2,FLATBUSH AV/AV U,40.609528,-73.921821,MIDWOOD KINGS HWY STA,40.60843,-73.957131,NYCT_5175,40.609318,-73.940689,AV R/BURNETT ST,at stop,6,2017-12-01 00:06:22,24:04:08
2017-12-01 00:05:55,0,Q85,TEARDROP/LAYOVER,40.701747,-73.802398,ROSEDALE 147 AV,40.657586,-73.741503,NYCT_8078,40.688048,-73.776373,MERRICK BL/FOCH BL,< 1 stop away,205,2017-12-01 00:06:26,24:07:18
2017-12-01 00:05:50,1,Q44-SBS,BOSTON RD/E 180 ST,40.842561,-73.878332,SELECT BUS JAMAICA via MAIN ST,40.704933,-73.793318,NYCT_6021,40.701642,-73.80797,ARCHER AV/SUTPHIN BL,< 1 stop away,161,NA,24:09:07
2017-12-01 00:06:08,1,B6,LIVONIA AV/ASHFORD ST,40.666382,-73.883617,BENSONHURST HARWAY AV,40.592947,-73.993383,NYCT_7191,40.661339,-73.87981,ASHFORD ST/STANLEY AV,approaching,58,2017-12-01 00:06:22,24:06:04
2017-12-01 00:06:04,1,Q3,165 ST/TERMINAL,40.707557,-73.795502,JFK AIRPORT via FARMERS BL,40.647137,-73.779426,NYCT_4907,40.701251,-73.764877,FARMERS BL/KEESEVILLE AV,approaching,102,2017-12-01 00:06:25,24:01:20
2017-12-01 00:06:13,0,B82,STILLWELL TERMINAL BUS LOOP,40.577079,-73.981296,SPRING CRK TWRS SEAVIEW AV via KINGS HWY,40.642991,-73.878325,NYCT_6799,40.643056,-73.878192,SEAVIEW AV/PENNSYLVANIA AV,at stop,11,NA,23:51:00
2017-12-01 00:05:54,0,M10,8 AV/W  57 ST,40.766762,-73.982741,HARLEM 159 ST via 8 AV,40.831209,-73.935693,NYCT_6415,40.794977,-73.962267,CENTRAL PK W/W 102 ST,approaching,103,2017-12-01 00:06:22,24:07:15
2017-12-01 00:05:57,0,B8,4 AV/95 ST,40.616105,-74.031146,BROWNSVILLE ROCKAWAY AV,40.656047,-73.907383,NYCT_477,40.642353,-73.925816,AV D/KINGS HY,at stop,10,2017-12-01 00:06:22,24:02:00
2017-12-01 00:06:08,0,S52,UNIVERSITY DRIVE/MEDICAL ARTS PAV E,40.586937,-74.086418,ST GEORGE FERRY,40.64357,-74.073225,NYCT_8220,40.599045,-74.071846,HYLAN BL/W FINGERBOARD RD,approaching,143,2017-12-01 00:06:26,23:56:04
2017-12-01 00:06:20,1,Bx1,RIVERDALE AV/W 231 ST,40.881188,-73.909336,MOTT HAVEN 136 ST via CONCOURSE,40.809653,-73.928362,NYCT_5689,40.809938,-73.928752,E 136 ST/LINCOLN AV,approaching,52,2017-12-01 00:07:18,24:04:00
2017-12-01 00:06:09,1,X10,E 57 ST/3 AV,40.76043,-73.967671,PT RICHMOND via NARROWS RD via GANNON AV,40.633696,-74.129779,NYCT_2645,40.718254,-74.002854,BROADWAY/WHITE ST,at stop,23,2017-12-01 00:06:22,24:03:51
2017-12-01 00:06:20,1,S48,ST GEORGE FERRY/S48 & S98,40.643473,-74.073556,ARLINGTON HOLLAND AV via FOREST,40.637625,-74.171153,NYCT_7020,40.626279,-74.15831,FOREST AV/HARBOR RD,< 1 stop away,224,2017-12-01 00:06:55,24:00:20
2017-12-01 00:06:16,1,B25,ALABAMA AV / FULTON ST,40.676746,-73.899944,DNTWN BKLYN FURMAN ST via FULTON,40.702523,-73.991967,NYCT_6825,40.67886,-73.921542,FULTON ST/BUFFALO AV,< 1 stop away,217,2017-12-01 00:07:08,23:57:56
2017-12-01 00:06:20,1,B43,BOX ST/MANHATTAN AV,40.737195,-73.95567,LEFRTS GDNS PROSPCT PK STA,40.660858,-73.961379,NYCT_463,40.664066,-73.948417,EMPIRE BL/NEW YORK AV,at stop,18,2017-12-01 00:06:23,24:09:12
2017-12-01 00:06:02,0,B6,HARWAY AV/BAY 37 ST,40.59351,-73.993996,EAST NY NEW LOTS STA,40.66642,-73.883387,NYCT_4874,40.624274,-73.969619,AV J/E 8 ST,< 1 stop away,168,2017-12-01 00:06:28,23:59:07
2017-12-01 00:05:50,1,S78,ST GEORGE FERRY/S78,40.643655,-74.07347,BRICKTOWN MALL,40.530061,-74.226654,NYCT_8142,40.639654,-74.075501,BAY ST/CENTRAL AV,approaching,104,2017-12-01 00:06:22,24:01:35
2017-12-01 00:06:12,1,B4,KNAPP ST/HARKNESS AV,40.58644,-73.93159,BAY RIDGE NARROWS AV,40.631716,-74.036406,NYCT_440,40.581266,-73.967392,OCEAN PY/WEST AV,at stop,18,2017-12-01 00:06:21,24:03:40
2017-12-01 00:06:17,1,Bx15,3 AV/E FORDHAM RD,40.86063,-73.890797,W. HARLEM 12 AV via 3 AV via 125 ST,40.817913,-73.960168,NYCT_5949,40.831301,-73.905722,3 AV/E 168 ST,approaching,66,2017-12-01 00:06:30,24:06:00
2017-12-01 00:05:59,0,B83,GATEWAY CTR TERM/GATEWAY DR,40.65265,-73.87703,BWAY JCT VN SNDRN AV,40.678139,-73.903574,NYCT_4820,40.652317,-73.876412,GATEWAY DR/SITE DR,< 1 stop away,726,2017-12-01 00:07:13,24:16:41
2017-12-01 00:06:20,0,Bx10,E 206 ST/BAINBRIDGE AV,40.875008,-73.880139,RIVERDALE 263 ST,40.912377,-73.902533,NYCT_4341,40.878349,-73.917158,KAPPOCK ST/KNOLLS CRES,approaching,135,2017-12-01 00:06:49,23:58:13
2017-12-01 00:06:08,0,M23-SBS,12 AV/W 23 ST,40.748717,-74.00811,SELECT BUS EAST SIDE AVENUE C CROSSTOWN,40.733004,-73.974597,NYCT_5919,40.744056,-73.995543,W 23 ST/7 AV,at stop,9,2017-12-01 00:06:22,24:04:42
2017-12-01 00:06:17,1,Bx1,RIVERDALE AV/W 231 ST,40.881188,-73.909336,MOTT HAVEN 136 ST via CONCOURSE,40.809653,-73.928362,NYCT_5534,40.865543,-73.895001,GRAND CONCOURSE/E 192 ST,< 1 stop away,201,2017-12-01 00:07:21,24:02:00
2017-12-01 00:06:21,0,B82,STILLWELL TERMINAL BUS LOOP,40.577079,-73.981296,SPRING CRK TWRS SEAVIEW AV via KINGS HWY,40.642991,-73.878325,NYCT_7115,40.604262,-73.972855,KINGS HY/MC DONALD AV,approaching,37,2017-12-01 00:06:29,23:35:24
2017-12-01 00:05:54,0,M60-SBS,BROADWAY/W 106 ST,40.801818,-73.967642,SELECT BUS SERVICE LA GUARDIA AIRPORT,40.768074,-73.862089,NYCT_5845,40.812983,-73.956556,W 125 ST/ST NICHOLAS AV,< 1 stop away,529,2017-12-01 00:08:35,23:59:52
2017-12-01 00:06:08,0,B15,MARCUS GARVEY BL/BROADWAY,40.699722,-73.941516,JFK AIRPORT,40.646909,-73.779564,NYCT_4833,40.667602,-73.879843,NEW LOTS AV/ESSEX ST,at stop,9,2017-12-01 00:06:22,24:00:01
2017-12-01 00:06:10,0,M116,W 106 ST/BROADWAY,40.801154,-73.967576,E. HARLEM PALADINO AV XTOWN,40.797614,-73.93101,NYCT_6696,40.804299,-73.955086,W 116 ST/ADAM C POWELL BL,< 1 stop away,299,2017-12-01 00:07:32,24:06:04
2017-12-01 00:06:05,1,B15,JFK AIRPORT/TERMINAL 5 AirTrain STATION,40.647276,-73.779631,BED-STUY WOODHULL HOSP,40.699777,-73.941503,NYCT_6812,40.674894,-73.927921,BERGEN ST/UTICA AV,< 1 stop away,208,2017-12-01 00:06:52,24:07:00
2017-12-01 00:05:54,0,Bx28,VALENTINE AV/E 192 ST,40.864076,-73.894613,CO-OP CITY EARHART LA via GUNHILL,40.860826,-73.822669,NYCT_4097,40.879569,-73.878996,E GUN HILL RD/TRYON AV,< 1 stop away,350,2017-12-01 00:08:03,24:11:19
2017-12-01 00:06:18,1,Bx41,WHITE PLAINS RD/E GUN HILL RD,40.877853,-73.866668,THE HUB 150 ST via WEBSTER,40.816888,-73.917485,NYCT_4764,40.823792,-73.914052,MELROSE AV/E 160 ST,at stop,15,2017-12-01 00:06:21,24:07:00
2017-12-01 00:05:59,0,B36,SURF AV/W 37 ST,40.573779,-74.002511,SHEEPSHEAD BAY AVENUE U,40.60002,-73.941872,NYCT_5006,40.575781,-73.973115,W 5 ST/SEA BREEZE AV,at stop,18,2017-12-01 00:06:22,24:04:06
2017-12-01 00:05:50,1,S61,ST GEORGE FERRY/S61 & S91,40.643169,-74.073494,S I MALL YUKON AV,40.575935,-74.167683,NYCT_4018,40.632856,-74.08664,VICTORY BL/WOODSTOCK AV,approaching,145,NA,24:07:14
2017-12-01 00:05:51,0,M103,PARK ROW/BEEKMAN ST,40.711859,-74.006156,E HARLEM 125 ST via 3 AV,40.804268,-73.935301,NYCT_6071,40.719353,-73.99444,BOWERY/DELANCEY ST,< 1 stop away,166,2017-12-01 00:06:30,23:46:45
2017-12-01 00:06:02,0,B35,39 ST/1 AV,40.656455,-74.012243,BROWNSVILLE M GASTON BL via CHURCH,40.656346,-73.907191,NYCT_763,40.640479,-73.986051,39 ST/13 AV,at stop,7,2017-12-01 00:06:22,23:57:31
2017-12-01 00:05:58,0,Bx9,E TREMONT AV/E 177 ST,40.839994,-73.879938,RIVERDALE 262 ST,40.910081,-73.896495,NYCT_1215,40.878579,-73.905029,BROADWAY/W 231 ST,at stop,29,2017-12-01 00:06:22,24:00:37
2017-12-01 00:06:00,0,Q58,PALMETTO ST/MYRTLE AV,40.700178,-73.910254,FLUSHING MAIN ST,40.757344,-73.829362,NYCT_7280,40.742479,-73.873004,CORONA AV/91 PL,at stop,0,NA,24:07:46
2017-12-01 00:06:02,0,B68,STILLWELL TERMINAL BUS LOOP,40.577039,-73.981439,WINDSOR TERR PRTCHRD SQ vi C I AV,40.660853,-73.97939,NYCT_660,40.66076,-73.979379,PROSPECT PK SW/BARTEL PRITCHARD SQ,at stop,6,NA,23:28:00
2017-12-01 00:06:08,0,Q3,JFK AIRPORT/TERMINAL 5 AirTrain STATION,40.647276,-73.779631,JAMAICA 179 ST STA 165 ST TERM,40.707614,-73.795538,NYCT_8118,40.647408,-73.779995,148 ST/S CARGO RD,1.0 miles away,1576,2017-12-01 00:09:05,24:09:19
2017-12-01 00:05:52,0,B46,KINGS PLAZA,40.609564,-73.921817,BRIDGE PLZ via UTICA,40.709404,-73.959565,NYCT_4622,40.664223,-73.93155,UTICA AV/CARROLL ST,< 1 stop away,248,2017-12-01 00:07:16,24:00:52
2017-12-01 00:06:20,1,Q27,138 ST/37 AV,40.761806,-73.829556,CAMBRIA HTS 120 AV,40.692404,-73.745214,NYCT_6456,40.750812,-73.818822,HOLLY AV/KISSENA BL,at stop,3,2017-12-01 00:06:21,23:31:24
2017-12-01 00:06:08,0,Bx30,E 206 ST/ROCHAMBEAU AV,40.874892,-73.880945,CO-OP CITY EARHART LA,40.860826,-73.822669,NYCT_8356,40.883437,-73.825233,PEARTREE AV/GIVAN AV,< 1 stop away,304,2017-12-01 00:07:14,24:04:03
2017-12-01 00:06:06,1,B60,WASHINGTON PLZ/LANE 2,40.709517,-73.959497,CANARSIE WILLIAMS AV,40.650239,-73.891686,NYCT_4521,40.709509,-73.959366,S 5 ST/RODNEY ST,< 1 stop away,312,2017-12-01 00:06:54,23:43:02
2017-12-01 00:06:10,1,Q17,138 ST/37 AV,40.761806,-73.829556,JAMAICA ARCHER AV,40.704933,-73.793318,NYCT_8440,40.735309,-73.784362,188 ST/186 LA #2,< 1 stop away,157,2017-12-01 00:06:34,24:00:18
2017-12-01 00:06:08,1,Q5,WEST CIRCLE DR /PARKING STRUCTURE,40.661908,-73.723262,JAMAICA PRSNS-ARCHR via MERRICK,40.701681,-73.802477,NYCT_8063,40.673737,-73.732514,MERRICK BL/LAURELTON PY,< 1 stop away,261,2017-12-01 00:06:41,23:47:36
2017-12-01 00:06:18,0,Bx34,VALENTINE AV/E FORDHAM RD,40.862431,-73.895859,WOODLAWN KATONAH AV,40.902777,-73.868318,NYCT_4085,40.896047,-73.873253,E 233 ST/ONEIDA AV,approaching,63,2017-12-01 00:06:30,24:05:00
2017-12-01 00:06:05,0,B38,TILLARY ST/CADMAN PZ E,40.696104,-73.990366,RIDGEWOOD METRO AV,40.713339,-73.914687,NYCT_4439,40.696153,-73.990064,ADAMS ST/BKLYN SUPREME CRT,< 1 stop away,487,2017-12-01 00:08:07,24:08:43
2017-12-01 00:05:58,0,B44,KNAPP ST/SHORE PKY,40.585035,-73.931329,WILLAMSBURG BRIDGE PLZ via NOSTRAND,40.709315,-73.959588,NYCT_4950,40.709351,-73.959633,WASHINGTON PLZ/WASHINGTON PLZ,at stop,5,NA,23:51:00
2017-12-01 00:06:04,0,X1,ELTINGVILLE/TRANSIT CENTER,40.56076,-74.171091,W MDTWN CNTRL PK S. via CHURCH via 6 AV,40.766007,-73.976806,NYCT_2552,40.554046,-74.168346,RICHMOND AV/AUGUSTA AV,< 1 stop away,222,2017-12-01 00:06:26,00:02:20
2017-12-01 00:05:57,1,Bx46,FOOD CENTER DR/MARKET ST,40.810044,-73.876694,PROSPECT AV WESTCHESTER AV,40.819383,-73.901827,NYCT_694,40.813423,-73.89136,LONGWOOD AV/BARRY ST,< 1 stop away,196,2017-12-01 00:06:29,24:07:18
2017-12-01 00:05:55,0,Bx11,W 179 ST/BROADWAY,40.849112,-73.93775,W FARMS RD SOUTHERN BL,40.825272,-73.89143,NYCT_7717,40.825234,-73.89136,W FARMS RD/WESTCHESTER AV,at stop,18,NA,NA
2017-12-01 00:06:21,1,Q27,138 ST/37 AV,40.761806,-73.829556,CAMBRIA HTS 120 AV,40.692404,-73.745214,NYCT_8480,40.720611,-73.736052,SPRINGFIELD BL/94 DR,approaching,125,NA,23:48:36
2017-12-01 00:06:07,1,S66,ST GEORGE FERRY/S66,40.643191,-74.073401,PORT RICHMOND via GRYMES HILL,40.639945,-74.130587,NYCT_7013,40.639979,-74.131836,PARK AV/RICHMOND TER #2,< 1 stop away,169,2017-12-01 00:06:47,24:00:00
2017-12-01 00:06:16,1,B48,MEEKER AV/STEWART AV,40.72671,-73.934225,LEFFERTS GARDENS PROSPECT PK STA,40.660858,-73.961379,NYCT_7212,40.723966,-73.950198,NASSAU AV/MANHATTAN AV,approaching,39,2017-12-01 00:06:25,24:06:00
2017-12-01 00:06:07,0,Bx4,BERGEN AV/WESTCHESTER AV,40.8163,-73.915704,WESTCHTR SQ via WESTCHTR AV,40.840268,-73.843224,NYCT_4756,40.816151,-73.908316,WESTCHESTER AV/E 156 ST,< 1 stop away,307,2017-12-01 00:07:08,24:07:57
2017-12-01 00:06:06,1,B37,4 AV/DEAN ST,40.683264,-73.979275,BAY RIDGE SHORE RD via 3 AV,40.611716,-74.035076,NYCT_792,40.673347,-73.989445,3 AV/6 ST,at stop,0,NA,24:04:10
2017-12-01 00:06:10,0,Q54,WASHINGTON PLZ / WASHINGTON PLZ,40.709469,-73.959501,JAMAICA 170 ST,40.707563,-73.789854,NYCT_4064,40.704721,-73.826766,METROPOLITAN AV/125 ST,approaching,67,2017-12-01 00:06:24,23:58:27
2017-12-01 00:06:04,1,S66,ST GEORGE FERRY/S66,40.643191,-74.073401,PORT RICHMOND via GRYMES HILL,40.639945,-74.130587,NYCT_8209,40.638134,-74.078022,VICTORY BL/BROOK ST,< 1 stop away,227,2017-12-01 00:06:59,24:03:35
2017-12-01 00:06:19,1,M86-SBS,E 92 ST/YORK AV,40.779755,-73.944535,SELECT BUS WESTSIDE WEST END AV CROSSTWN,40.788242,-73.976277,NYCT_5824,40.778686,-73.953665,E 86 ST/3 AV,approaching,55,2017-12-01 00:06:33,24:04:40
2017-12-01 00:05:54,1,M15,E 126 ST/2 AV,40.80323,-73.932451,SOUTH FERRY via 2 AV,40.701609,-74.012226,NYCT_5812,40.72167,-73.989253,ALLEN ST/DELANCEY ST,< 1 stop away,270,2017-12-01 00:07:07,23:29:35
2017-12-01 00:06:01,0,B52,CADMAN PZ W/TILLARY ST,40.695999,-73.990945,RIDGEWOOD TERM via GATES,40.69926,-73.911161,NYCT_3964,40.686963,-73.963624,GREENE AV/GRAND AV,approaching,131,2017-12-01 00:06:33,23:56:40
2017-12-01 00:06:17,0,Bx17,E 135 ST/ST ANN'S AV,40.804901,-73.91868,FORDHAM PLZ,40.860063,-73.890979,NYCT_704,40.859953,-73.890922,FORDHAM PLAZA/BUS TERMINAL,at stop,10,2017-12-01 00:06:22,24:03:00
2017-12-01 00:06:05,1,Q88,AMBOY LA/SPRINGFIELD BL,40.717835,-73.735627,WOODHVN BL STA QNS CTR MALL via H.HRDNG,40.734979,-73.86959,NYCT_6847,40.739311,-73.847716,HORACE HARDING EXP/WALDRON ST,< 1 stop away,262,2017-12-01 00:06:23,24:01:38
2017-12-01 00:06:21,1,M102,W 146 ST/MALCOLM X BL,40.821152,-73.935977,EAST VIL 6 ST via LEX AV,40.729113,-73.990259,NYCT_5891,40.748915,-73.977892,LEXINGTON AV/E 37 ST,approaching,69,2017-12-01 00:06:29,24:01:59
2017-12-01 00:05:49,0,M3,4 AV/E 10 ST,40.731342,-73.990292,FT GEORGE 193 ST via MADSON via ST. NICH,40.858092,-73.925535,NYCT_6666,40.831851,-73.942778,AMSTERDAM AV/W 158 ST,< 1 stop away,231,NA,24:04:10
2017-12-01 00:06:03,1,B49,FRANKLIN AV/LEFFERTS PL,40.680474,-73.955643,MNHATN BCH KNGSBRO CC via BEDFORD AV,40.578119,-73.939855,NYCT_4621,40.577228,-73.949225,ORIENTAL BL/DOVER ST,approaching,35,NA,24:03:14
2017-12-01 00:05:52,0,M1,4 AV/E 10 ST,40.731342,-73.990292,HARLEM 147 ST via MADISON,40.821108,-73.935894,NYCT_3891,40.794871,-73.948584,MADISON AV/E 109 ST,approaching,124,NA,23:39:13
2017-12-01 00:06:12,0,B12,PARKSIDE AV/OCEAN AV,40.654887,-73.961725,EAST NY ALABAMA AV,40.676817,-73.899659,NYCT_7090,40.655699,-73.956372,CLARKSON AV/BEDFORD AV,approaching,108,2017-12-01 00:06:50,23:58:38
2017-12-01 00:05:09,0,M1,4 AV/E 10 ST,40.731342,-73.990292,HARLEM 147 ST via MADISON,40.821108,-73.935894,NYCT_3839,40.812527,-73.937115,5 AV/E 135 ST,approaching,103,2017-12-01 00:06:22,24:06:25
2017-12-01 00:06:03,1,B1,87 ST/4 Av,40.621924,-74.028495,MANHATTAN BEACH KINGSBORO CC,40.578093,-73.94017,NYCT_4876,40.578139,-73.940907,ORIENTAL BL/MACKENZIE ST,approaching,64,2017-12-01 00:06:22,23:59:00
2017-12-01 00:06:06,1,M116,PLEASANT AV/E 120 ST,40.797246,-73.931695,WEST SIDE BWAY - 106 ST XTOWN,40.801329,-73.967601,NYCT_3947,40.801237,-73.967612,W 106 ST/BROADWAY,at stop,4,2017-12-01 00:06:22,24:03:00
2017-12-01 00:06:04,0,Bx7,ST NICHOLAS AV/W 167 ST,40.840932,-73.939496,RIVERDALE 263 ST,40.912377,-73.902533,NYCT_8381,40.905572,-73.904454,RIVERDALE AV/W 259 ST,< 1 stop away,179,2017-12-01 00:06:38,24:06:20
2017-12-01 00:06:08,1,M60-SBS,LGA/TERMINAL D,40.768386,-73.862535,SELECT BUS WEST SIDE BWAY - 106 ST,40.801424,-73.968241,NYCT_5303,40.769365,-73.909848,HOYT AV/31 ST,< 1 stop away,691,NA,23:33:53
2017-12-01 00:06:21,0,Bx15,ST CLAIRE PL/W 125 ST,40.817065,-73.959775,FORDHAM PLZ via 3 AV,40.86099,-73.890265,NYCT_1016,40.847288,-73.895861,3 AV/E 180 ST,< 1 stop away,446,NA,23:15:40
2017-12-01 00:06:18,1,Bx30,EARHART LA/ERSKINE PL,40.861114,-73.822549,NORWOOD 205 ST STA,40.874925,-73.880517,NYCT_8320,40.879972,-73.878859,BAINBRIDGE AV/E 210 ST,approaching,73,2017-12-01 00:06:41,24:04:11
2017-12-01 00:06:07,1,B60,WASHINGTON PLZ/LANE 2,40.709517,-73.959497,CANARSIE WILLIAMS AV,40.650239,-73.891686,NYCT_4544,40.650357,-73.891628,WILLIAMS AV/FLATLANDS AV,at stop,6,2017-12-01 00:06:22,23:49:00
2017-12-01 00:06:09,1,Q12,NORTHERN BL/MORGAN ST,40.771726,-73.734752,FLUSHING MAIN ST STA via NORTHERN,40.758986,-73.831778,NYCT_7415,40.757852,-73.789201,NORTHERN BL/192 ST,approaching,55,2017-12-01 00:06:22,24:03:40
2017-12-01 00:06:11,0,B47,AV U/E 54 ST,40.611007,-73.920407,BED-STUY WOODHULL HOSP via RALPH AV,40.699777,-73.941503,NYCT_7254,40.611663,-73.919625,AV U/E 56 ST,approaching,107,2017-12-01 00:06:21,24:05:46
2017-12-01 00:06:15,1,Bx35,W FARMS RD/WESTCHESTER AV,40.824986,-73.891499,WASHINGTON HTS GW BRIDGE,40.848943,-73.936782,NYCT_7710,40.83559,-73.920892,E 167 ST/RIVER AV,approaching,73,2017-12-01 00:06:35,24:03:45
2017-12-01 00:06:00,0,Bx22,CASTLE HILL AV/NORTON AV,40.814728,-73.846917,FORDHAM CENTER - VALENTINE AV,40.862502,-73.895797,NYCT_5764,40.826738,-73.849829,CASTLE HILL AV/BRUCKNER BL,approaching,129,2017-12-01 00:06:40,24:06:00
2017-12-01 00:05:56,1,Q44-SBS,BOSTON RD/E 180 ST,40.842561,-73.878332,SELECT BUS JAMAICA via MAIN ST,40.704933,-73.793318,NYCT_5998,40.701984,-73.801808,ARCHER AV/MERRICK BL,0.6 miles away,896,NA,24:01:33
2017-12-01 00:05:38,0,Bx17,E 135 ST/ST ANN'S AV,40.804901,-73.91868,FORDHAM PLZ,40.860063,-73.890979,NYCT_7734,40.807378,-73.917102,ST. ANN'S AV/E 140 ST,approaching,113,NA,24:01:33
2017-12-01 00:06:18,1,M20,BROADWAY/W 63 ST,40.770883,-73.982338,SOUTH FERRY via 7 AV via BAT PK CITY,40.702371,-74.01304,NYCT_3934,40.71712,-74.012748,NORTH END AV/WARREN ST,< 1 stop away,192,2017-12-01 00:07:06,24:04:01
2017-12-01 00:06:15,0,B70,CROPSEY AV/BKLYN CAMPUS VA,40.609103,-74.023816,SUNSET PARK 39ST-1AV via 8 AV,40.656499,-74.012109,NYCT_259,40.634612,-74.010472,8 AV/60 ST,< 1 stop away,159,2017-12-01 00:07:22,24:03:43
2017-12-01 00:05:54,0,Q85,TEARDROP/LAYOVER,40.701747,-73.802398,ROSEDALE 147 AV,40.657657,-73.741279,NYCT_8457,40.665489,-73.755104,S CONDUIT AV/223 ST,approaching,62,2017-12-01 00:06:22,24:04:44
2017-12-01 00:06:17,0,Q5,TEARDROP/LAYOVER,40.701747,-73.802398,ROSEDALE LIRR STA via MERRICK,40.666011,-73.735937,NYCT_8102,40.678903,-73.758866,MERRICK BL/MONTAUK ST,< 1 stop away,158,2017-12-01 00:06:40,24:06:47
2017-12-01 00:06:16,0,Bx27,SOUNDVIEW AV/STEPHENS AV,40.807868,-73.852716,WESTCHESTER AV,40.829396,-73.874396,NYCT_320,40.81151,-73.854705,O'BRIEN AV/WHITE PLAINS RD,approaching,91,2017-12-01 00:06:26,24:06:01
2017-12-01 00:06:17,0,Q36,165 ST TERM/165 ST TERM BAY 6,40.707565,-73.795513,FLORAL PARK 257 ST via JAMAICA AV,40.727818,-73.708708,NYCT_6862,40.718093,-73.736188,JAMAICA AV/SPRINGFIELD BL,approaching,41,2017-12-01 00:06:26,23:54:00
2017-12-01 00:06:21,1,S59,RICHMOND TER/PARK AV #3,40.640167,-74.130966,HYLAN BL,40.53426,-74.154214,NYCT_8258,40.624912,-74.146593,FOREST AV/WILLOW RD W,approaching,39,2017-12-01 00:06:29,23:50:33
2017-12-01 00:05:56,0,Q48,DITMARS BL/102 ST,40.768659,-73.868283,FLUSHING MAIN ST STA,40.759589,-73.830281,NYCT_4173,40.759807,-73.82917,ROOSEVELT AV/MAIN ST,approaching,96,2017-12-01 00:08:28,23:52:00
2017-12-01 00:06:06,1,B47,MARCUS GARVEY BLVD/BROADWAY,40.699574,-73.941444,KINGS PLAZA via RALPH AV,40.611007,-73.920407,NYCT_7198,40.674468,-73.922058,RALPH AV/BERGEN ST,at stop,24,2017-12-01 00:06:22,24:00:34
2017-12-01 00:06:11,0,B15,MARCUS GARVEY BL/BROADWAY,40.699722,-73.941516,JFK AIRPORT,40.646909,-73.779564,NYCT_6798,40.68702,-73.938843,MARCUS GARVEY BL/MADISON ST,approaching,141,2017-12-01 00:06:40,24:07:00
2017-12-01 00:06:19,0,Q12,ROOSEVELT AV/LAYOVER,40.758997,-73.831756,LITTLE NECK GLENWOOD ST VIA NORTHERN,40.771766,-73.733304,NYCT_4455,40.760069,-73.828115,ROOSEVELT AV/MAIN ST,approaching,33,2017-12-01 00:06:56,24:05:00
2017-12-01 00:06:15,0,B8,CROPSEY AV/VETERANS HOSPITAL,40.608232,-74.022405,BROWNSVILLE ROCKAWAY AV,40.656047,-73.907383,NYCT_794,40.629206,-73.980102,18 AV/47 ST,approaching,66,2017-12-01 00:06:34,24:04:50
2017-12-01 00:05:59,1,B41,CADMAN PLAZA WEST/JOHNSON ST,40.695535,-73.990829,KINGS PLAZA via FLATBSH,40.609212,-73.921513,NYCT_4585,40.622129,-73.936348,FLATBUSH AV/FLATLANDS AV,< 1 stop away,160,NA,23:51:50
2017-12-01 00:06:16,0,S62,VICTORY BL/opp Con Edison,40.586793,-74.199142,ST GEORGE FERRY via VICTORY,40.64357,-74.073225,NYCT_4128,40.612398,-74.132898,VICTORY BL/PERRY AV,< 1 stop away,259,2017-12-01 00:06:39,24:05:00
2017-12-01 00:05:52,1,Bx21,WESTCHESTER AV/LANE  AV,40.83974,-73.843199,MOTT HAVEN 136 ST,40.809653,-73.928362,NYCT_7739,40.819715,-73.913386,3 AV/E 154 ST,approaching,141,2017-12-01 00:06:53,23:57:59
2017-12-01 00:05:55,0,B38,TILLARY ST/CADMAN PZ E,40.696104,-73.990366,RIDGEWOOD METRO AV,40.713339,-73.914687,NYCT_7219,40.711882,-73.916257,STARR ST/METROPOLITAN AV,< 1 stop away,209,NA,23:53:00
2017-12-01 00:06:19,1,B13,WYCKOFF AV/DE KALB AV,40.704324,-73.91937,SPRING CREEK GATEWAY MALL,40.652821,-73.876756,NYCT_4051,40.686974,-73.873076,CRESCENT ST/ETNA ST,at stop,29,2017-12-01 00:06:26,24:06:02
2017-12-01 00:06:05,1,Bx5,TURNBULL AV/ PUGSLEY AV,40.823059,-73.855739,SOUTHERN BLVD WESTCHESTER AV,40.82458,-73.891803,NYCT_6103,40.823157,-73.855557,LAFAYETTE AV/PUGSLEY AV,approaching,122,NA,24:10:41
2017-12-01 00:05:59,1,B26,WYCKOFF ST/PALMETTO ST,40.69915,-73.910476,DNTWN BKLYN TILLARY ST via HALSEY,40.693939,-73.990314,NYCT_6545,40.684332,-73.927881,HALSEY ST/MALCOLM X BL,< 1 stop away,158,2017-12-01 00:06:43,24:07:00
2017-12-01 00:06:12,0,Q56,VAN SINDEREN AV/FULTON ST,40.678391,-73.903549,JAMAICA 170 ST,40.707563,-73.789854,NYCT_6810,40.703485,-73.799834,JAMAICA AV/160 ST,approaching,52,2017-12-01 00:06:33,24:09:08
2017-12-01 00:05:55,0,B44,EMMONS AV/NOSTRAND AV,40.584026,-73.93844,WILLAMSBURG BRIDGE PLZ via NOSTRAND,40.709315,-73.959588,NYCT_7357,40.650658,-73.946644,NEW YORK AV/CHURCH AV,approaching,67,2017-12-01 00:06:22,23:48:00
2017-12-01 00:06:15,1,M104,CONVENT AV/W 129 ST,40.814223,-73.953176,41 ST via BROADWAY/7 AV,40.756408,-73.989815,NYCT_6669,40.756313,-73.989675,W 41 ST/8 AV,at stop,15,2017-12-01 00:06:22,24:02:00
2017-12-01 00:06:04,0,B64,STILLWELL AV/MERMAID AV,40.57709,-73.981639,BAY RIDGE SHORE RD via 13 AV via BAY RDG,40.637071,-74.036088,NYCT_4870,40.604891,-74.007831,BATH AV/17 AV,approaching,87,2017-12-01 00:06:22,24:06:35
2017-12-01 00:06:16,1,Q27,138 ST/37 AV,40.761806,-73.829556,CAMBRIA HTS 120 AV,40.692404,-73.745214,NYCT_6856,40.757634,-73.827987,KISSENA BL/SANFORD AV,approaching,124,2017-12-01 00:07:14,24:02:51
2017-12-01 00:05:19,1,M60-SBS,LGA/TERMINAL D,40.768386,-73.862535,SELECT BUS WEST SIDE BWAY - 106 ST,40.801424,-73.968241,NYCT_5860,40.804171,-73.936939,E 125 ST/LEXINGTON AV,approaching,82,2017-12-01 00:06:22,23:55:00
2017-12-01 00:06:02,1,B7,SARATOGA AV/HALSEY ST,40.685581,-73.917794,FLATBUSH AV,40.62242,-73.937232,NYCT_6587,40.685243,-73.917651,SARATOGA AV/MAC DONOUGH ST,< 1 stop away,155,2017-12-01 00:06:22,24:03:40
2017-12-01 00:06:14,1,M15,E 126 ST/2 AV,40.80323,-73.932451,SOUTH FERRY via 2 AV,40.701609,-74.012226,NYCT_5877,40.787401,-73.9448,2 AV/E 101 ST,at stop,8,2017-12-01 00:06:22,23:34:29
2017-12-01 00:05:53,0,Q32,W 32 ST/7 AV,40.749406,-73.991017,JACKSON HTS NORTHERN - 81 via ROOSVLT,40.755323,-73.886137,NYCT_7385,40.749197,-73.937709,QUEENS BL/SKILLMAN AV,< 1 stop away,477,2017-12-01 00:07:40,24:05:47
2017-12-01 00:06:12,1,Bx42,HARDING AV/HOSMER  AV,40.812946,-73.827045,WESTCHESTER SQ,40.840827,-73.842202,NYCT_5766,40.814466,-73.822789,HARDING AV/BALCOM AV,approaching,109,2017-12-01 00:06:25,24:08:00
2017-12-01 00:06:05,0,B15,MARCUS GARVEY BL/BROADWAY,40.699722,-73.941516,JFK AIRPORT,40.646909,-73.779564,NYCT_4851,40.673284,-73.925132,BUFFALO AV/PROSPECT PL,at stop,7,2017-12-01 00:06:22,24:03:29
2017-12-01 00:06:11,1,Bx16,ROPES AV/BOSTON RD,40.88997,-73.819647,NORWOOD 205 ST STA via MUNDY LA,40.87506,-73.879546,NYCT_4089,40.895588,-73.863453,WEBSTER AV/E 233 ST,at stop,7,2017-12-01 00:06:22,24:05:16
2017-12-01 00:05:57,0,M14D,11 AV/W 17 ST,40.744841,-74.008147,LOWER E. SIDE DELANCY-FDR CROSSTOWN,40.716391,-73.980131,NYCT_5566,40.744489,-74.006015,W 18 ST / 10 AV,at stop,14,2017-12-01 00:06:22,24:12:00
2017-12-01 00:05:49,0,M104,W 41 ST/8 AV,40.756549,-73.990123,W HARLEM 129 ST via BWAY,40.814906,-73.955044,NYCT_6658,40.81494,-73.955126,AMSTERDAM AV/W 129 ST,at stop,0,2017-12-01 00:06:22,23:43:00
2017-12-01 00:05:50,0,Bx40,SEDGWICK AV/CEDAR AV,40.852352,-73.920231,THROGS NECK FT SCHUYLER via TREMONT,40.809077,-73.801898,NYCT_4779,40.832443,-73.827751,E TREMONT AV/BARKLEY AV,< 1 stop away,211,NA,23:56:55
2017-12-01 00:05:55,1,B11,FLATBUSH AV/E 31 ST,40.631992,-73.946701,SUNSET PARK 1 AV - 58 ST,40.645616,-74.023524,NYCT_372,40.62596,-73.954277,AV J/OCEAN AV,< 1 stop away,193,2017-12-01 00:06:57,24:05:49
2017-12-01 00:06:11,0,Bx2,LINCOLN AV/E 137 ST,40.809617,-73.928272,KNGSBRDG HTS FT INDEP ST via CONCOURSE,40.878747,-73.898032,NYCT_5802,40.880083,-73.885863,W MOSHOLU PY S/PAUL AV,approaching,31,2017-12-01 00:06:22,24:00:23
2017-12-01 00:06:20,1,X17,E 57 ST/3 AV,40.76043,-73.967671,ARDEN HTS HUGENOT AV via NJ via DRMGOOLE,40.543643,-74.196718,NYCT_2725,40.585,-74.1607,MARSH AV/RING RD,< 1 stop away,237,2017-12-01 00:07:14,23:53:16
2017-12-01 00:06:21,1,Bx3,W 238 ST/BROADWAY,40.884969,-73.900478,WASHINGTON HTS GW BRIDGE,40.849011,-73.93689,NYCT_8390,40.86288,-73.904851,UNIVERSITY AV/W FORDHAM RD,at stop,0,NA,24:01:00
